stop_id,stop_name,stop_desc,stop_lat,stop_lon,zone_id,fsa_stop_id,fsa_stop_routes
AAP,Alexandra Palace,,,,,AAP,
AAT,Achanalt,,,,,AAT,
ABA,Aberdare,,,,,ABA,
ABC,Altnabreac,,,,,ABC,
ABD,Aberdeen,,,,,ABD,
ABE,Aber,,,,,ABE,
ABH,Abererch,,,,,ABH,
ABW,Abbey Wood,,,,,ABW,
ABY,Ashburys,,,,,ABY,
ACB,Acton Bridge,,,,,ACB,
ACC,Acton Central,,,,,ACC,
ACG,Acocks Green,,,,,ACG,
ACH,Achnashellach,,,,,ACH,
ACK,Acklington,,,,,ACK,
ACL,Acle,,,,,ACL,
ACN,Achnasheen,,,,,ACN,
ACR,Accrington,,,,,ACR,
ACT,Ascot,,,,,ACT,
ACY,Abercynon,,,,,ACY,
ADC,Adlington (Cheshire),,,,,ADC,
ADD,Adderley Park,,,,,ADD,
ADK,Ardwick,,,,,ADK,
ADL,Adlington (Lancs),,,,,ADL,
ADM,Adisham,,,,,ADM,
ADN,Ardrossan Town,,,,,ADN,
ADR,Airdrie,,,,,ADR,
ADS,Ardrossan Harbour,,,,,ADS,
ADV,Andover,,,,,ADV,
ADW,Addiewell,,,,,ADW,
AFK,Ashford International,,,,,AFK,
AFS,Ashford (Surrey),,,,,AFS,
AFV,Ansdell & Fairhaven,,,,,AFV,
AGL,Abergele & Pensarn,,,,,AGL,
AGR,Angel Road,,,,,AGR,
AGS,Argyle Street,,,,,AGS,
AGT,Aldrington,,,,,AGT,
AGV,Abergavenny,,,,,AGV,
AHD,Ashtead,,,,,AHD,
AHN,Ashton-under-Lyne,,,,,AHN,
AHS,Ashurst,,,,,AHS,
AHT,Aldershot,,,,,AHT,
AHV,Ash Vale,,,,,AHV,
AIG,Aigburth,,,,,AIG,
AIN,Aintree,,,,,AIN,
AIR,Airbles,,,,,AIR,
ALB,Albrighton,,,,,ALB,
ALD,Alderley Edge,,,,,ALD,
ALF,Alfreton,,,,,ALF,
ALK,Aslockton,,,,,ALK,
ALM,Alnmouth,,,,,ALM,
ALN,Althorne,,,,,ALN,
ALO,Alloa,,,,,ALO,
ALP,Althorpe,,,,,ALP,
ALR,Alresford,,,,,ALR,
ALT,Altrincham,,,,,ALT,
ALV,Alvechurch,,,,,ALV,
ALW,Allens West,,,,,ALW,
ALX,Alexandria,,,,,ALX,
AMB,Ambergate,,,,,AMB,
AMF,Ammanford,,,,,AMF,
AML,Acton Main Line,,,,,AML,
AMR,Amersham,,,,,AMR,
AMT,Aldermaston,,,,,AMT,
AMY,Amberley,,,,,AMY,
ANC,Ancaster,,,,,ANC,
AND,Anderston,,,,,AND,
ANF,Ashurst New Forest,,,,,ANF,
ANG,Angmering,,,,,ANG,
ANL,Anniesland,,,,,ANL,
ANN,Annan,,,,,ANN,
ANS,Ainsdale,,,,,ANS,
ANZ,Anerley,,,,,ANZ,
AON,Alton,,,,,AON,
APB,Appley Bridge,,,,,APB,
APD,Appledore (Kent),,,,,APD,
APF,Appleford,,,,,APF,
APG,Aspley Guise,,,,,APG,
APP,Appleby,,,,,APP,
APS,Apsley,,,,,APS,
ARB,Arbroath,,,,,ARB,
ARD,Ardgay,,,,,ARD,
ARG,Arisaig,,,,,ARG,
ARL,Arlesey,,,,,ARL,
ARN,Arnside,,,,,ARN,
ARR,Arram,,,,,ARR,
ART,Arrochar & Tarbet,,,,,ART,
ARU,Arundel,,,,,ARU,
ASB,Ardrossan South Beach,,,,,ASB,
ASC,Ashchurch for Tewkesbury,,,,,ASC,
ASF,Ashfield,,,,,ASF,
ASG,Alsager,,,,,ASG,
ASH,Ash,,,,,ASH,
ASI,Ashford International (Eurostar),,,,,ASI,
ASK,Askam,,,,,ASK,
ASN,Addlestone,,,,,ASN,
ASP,Aspatria,,,,,ASP,
ASS,Alness,,,,,ASS,
AST,Aston,,,,,AST,
ASY,Ashley,,,,,ASY,
ATB,Attenborough,,,,,ATB,
ATH,Atherstone,,,,,ATH,
ATL,Attleborough,,,,,ATL,
ATN,Atherton,,,,,ATN,
ATT,Attadale,,,,,ATT,
AUD,Audley End,,,,,AUD,
AUG,Aughton Park,,,,,AUG,
AUI,Ardlui,,,,,AUI,
AUK,Auchinleck,,,,,AUK,
AUR,Aberdour,,,,,AUR,
AUW,Ascott-under-Wychwood,,,,,AUW,
AVF,Avoncliff,,,,,AVF,
AVM,Aviemore,,,,,AVM,
AVN,Avonmouth,,,,,AVN,
AVP,Aylesbury Vale Parkway,,,,,AVP,
AVY,Aberdovey,,,,,AVY,
AWK,Adwick,,,,,AWK,
AWM,Ashwell & Morden,,,,,AWM,
AWT,Armathwaite,,,,,AWT,
AXM,Axminster,,,,,AXM,
AXP,Alexandra Parade,,,,,AXP,
AYH,Aylesham,,,,,AYH,
AYL,Aylesford,,,,,AYL,
AYP,Albany Park,,,,,AYP,
AYR,Ayr,,,,,AYR,
AYS,Aylesbury,,,,,AYS,
BAA,Barnham,,,,,BAA,
BAB,Balcombe,,,,,BAB,
BAC,Bache,,,,,BAC,
BAD,Banstead,,,,,BAD,
BAG,Bagshot,,,,,BAG,
BAH,Bank Hall,,,,,BAH,
BAI,Blairhill,,,,,BAI,
BAJ,Baglan,,,,,BAJ,
BAK,Battersea Park,,,,,BAK,
BAL,Balham,,,,,BAL,
BAM,Bamford,,,,,BAM,
BAN,Banbury,,,,,BAN,
BAR,Bare Lane,,,,,BAR,
BAS,Bere Alston,,,,,BAS,
BAT,Battle,,,,,BAT,
BAU,Barton-on-Humber,,,,,BAU,
BAV,Barrow Haven,,,,,BAV,
BAW,Blackwater,,,,,BAW,
BAY,Bayford,,,,,BAY,
BBG,Bishopbriggs,,,,,BBG,
BBK,Bilbrook,,,,,BBK,
BBL,Bat & Ball,,,,,BBL,
BBN,Blackburn,,,,,BBN,
BBS,Bordesley,,,,,BBS,
BBW,Berry Brow,,,,,BBW,
BCB,Burscough Bridge,,,,,BCB,
BCC,Beccles,,,,,BCC,
BCE,Bracknell,,,,,BCE,
BCF,Beaconsfield,,,,,BCF,
BCG,Birchgrove,,,,,BCG,
BCH,Birchington-on-sea,,,,,BCH,
BCJ,Burscough Junction,,,,,BCJ,
BCK,Buckley,,,,,BCK,
BCN,Branchton,,,,,BCN,
BCS,Bicester North,,,,,BCS,
BCU,Brockenhurst,,,,,BCU,
BCV,Bruce Grove,,,,,BCV,
BCY,Brockley,,,,,BCY,
BDA,Brundall,,,,,BDA,
BDB,Broadbottom,,,,,BDB,
BDG,Bridgeton,,,,,BDG,
BDH,Bedhampton,,,,,BDH,
BDI,Bradford Interchange,,,,,BDI,
BDK,Baldock,,,,,BDK,
BDL,Birkdale,,,,,BDL,
BDM,Bedford,,,,,BDM,
BDN,Brading,,,,,BDN,
BDQ,Bradford Forster Square,,,,,BDQ,
BDT,Bridlington,,,,,BDT,
BDW,Bedwyn,,,,,BDW,
BDY,Bredbury,,,,,BDY,
BEA,Bridge of Allan,,,,,BEA,
BEB,Bebington,,,,,BEB,
BEC,Beckenham Hill,,,,,BEC,
BEE,Beeston,,,,,BEE,
BEF,Benfleet,,,,,BEF,
BEG,Beltring,,,,,BEG,
BEH,Bedworth,,,,,BEH,
BEL,Beauly,,,,,BEL,
BEM,Bempton,,,,,BEM,
BEN,Bentham,,,,,BEN,
BER,Bearley,,,,,BER,
BES,Bescar Lane,,,,,BES,
BET,Bethnal Green,,,,,BET,
BEU,Beaulieu Road,,,,,BEU,
BEV,Beverley,,,,,BEV,
BEX,Bexhill,,,,,BEX,
BEY,Ben Rhydding,,,,,BEY,
BFD,Brentford,,,,,BFD,
BFE,Bere Ferrers,,,,,BFE,
BFF,Blaenau Ffestiniog,,,,,BFF,
BFN,Byfleet & New Haw,,,,,BFN,
BFR,London Blackfriars,,,,,BFR,
BGA,Brundall Gardens,,,,,BGA,
BGD,Bargoed,,,,,BGD,
BGE,Broad Green,,,,,BGE,
BGG,Brigg,,,,,BGG,
BGH,Brighouse,,,,,BGH,
BGI,Bargeddie,,,,,BGI,
BGL,Bugle,,,,,BGL,
BGM,Bellingham,,,,,BGM,
BGN,Bridgend,,,,,BGN,
BGS,Bogston,,,,,BGS,
BHC,Balloch,,,,,BHC,
BHD,Brithdir,,,,,BHD,
BHG,Bathgate,,,,,BHG,
BHI,Birmingham International,,,,,BHI,
BHK,Bush Hill Park,,,,,BHK,
BHM,Birmingham New Street,,,,,BHM,
BHO,Blackhorse Road,,,,,BHO,
BHR,Builth Road,,,,,BHR,
BHS,Brockholes,,,,,BHS,
BIA,Bishop Auckland,,,,,BIA,
BIC,Billericay,,,,,BIC,
BID,Bidston,,,,,BID,
BIF,Barrow-in-Furness,,,,,BIF,
BIG,Billingshurst,,,,,BIG,
BIK,Birkbeck,,,,,BIK,
BIL,Billingham,,,,,BIL,
BIN,Bingham,,,,,BIN,
BIO,Baillieston,,,,,BIO,
BIP,Bishopstone,,,,,BIP,
BIS,Bishops Stortford,,,,,BIS,
BIT,Bicester Town,,,,,BIT,
BIW,Biggleswade,,,,,BIW,
BIY,Bingley,,,,,BIY,
BKA,Bookham,,,,,BKA,
BKC,Birkenhead Central,,,,,BKC,
BKD,Blakedown,,,,,BKD,
BKG,Barking,,,,,BKG,
BKH,Blackheath,,,,,BKH,
BKJ,Beckenham Junction,,,,,BKJ,
BKL,Bickley,,,,,BKL,
BKM,Berkhamsted,,,,,BKM,
BKN,Birkenhead North,,,,,BKN,
BKO,Brookwood,,,,,BKO,
BKP,Birkenhead Park,,,,,BKP,
BKQ,Hamilton Square,,,,,BKQ,
BKS,Bekesbourne,,,,,BKS,
BKT,Blake Street,,,,,BKT,
BKW,Berkswell,,,,,BKW,
BLA,Blair Atholl,,,,,BLA,
BLB,Battlesbridge,,,,,BLB,
BLD,Baildon,,,,,BLD,
BLE,Bramley,,,,,BLE,
BLG,Bellgrove,,,,,BLG,
BLH,Bellshill,,,,,BLH,
BLK,Blackrod,,,,,BLK,
BLL,Bardon Mill,,,,,BLL,
BLM,Belmont,,,,,BLM,
BLN,Blundellsands & Crosby,,,,,BLN,
BLO,Blaydon,,,,,BLO,
BLP,Belper,,,,,BLP,
BLT,Blantyre,,,,,BLT,
BLV,Belle Vue,,,,,BLV,
BLW,Bulwell,,,,,BLW,
BLX,Bloxwich,,,,,BLX,
BLY,Bletchley,,,,,BLY,
BMB,Bamber Bridge,,,,,BMB,
BMC,Bromley Cross,,,,,BMC,
BMD,Brimsdown,,,,,BMD,
BME,Broome,,,,,BME,
BMF,Broomfleet,,,,,BMF,
BMG,Barming,,,,,BMG,
BMH,Bournemouth,,,,,BMH,
BML,Bramhall,,,,,BML,
BMN,Bromley North,,,,,BMN,
BMO,Birmingham Moor Street,,,,,BMO,
BMP,Brampton (Cumbria),,,,,BMP,
BMR,Bromborough Rake,,,,,BMR,
BMS,Bromley South,,,,,BMS,
BMT,Bedminster,,,,,BMT,
BMV,Bromsgrove,,,,,BMV,
BMY,Bramley (Hants),,,,,BMY,
BNA,Burnage,,,,,BNA,
BNC,Burnley Central,,,,,BNC,
BND,Brandon,,,,,BND,
BNE,Bourne End,,,,,BNE,
BNF,Briton Ferry,,,,,BNF,
BNG,Bangor (Gwynedd),,,,,BNG,
BNH,Barnehurst,,,,,BNH,
BNI,Barnes Bridge,,,,,BNI,
BNL,Barnhill,,,,,BNL,
BNM,Burnham,,,,,BNM,
BNP,Barnstaple,,,,,BNP,
BNS,Barnes,,,,,BNS,
BNT,Brinnington,,,,,BNT,
BNV,Banavie,,,,,BNV,
BNW,Bootle New Strand,,,,,BNW,
BNY,Barnsley,,,,,BNY,
BOA,Bradford-on-Avon,,,,,BOA,
BOC,Bootle,,,,,BOC,
BOD,Bodmin Parkway,,,,,BOD,
BOE,Botley,,,,,BOE,
BOG,Bognor Regis,,,,,BOG,
BOH,Bosham,,,,,BOH,
BOM,Bromborough,,,,,BOM,
BON,Bolton,,,,,BON,
BOP,Bowes Park,,,,,BOP,
BOR,Bodorgan,,,,,BOR,
BOT,Bootle Oriel Road,,,,,BOT,
BPB,Blackpool Pleasure Beach,,,,,BPB,
BPC,Penychain,,,,,BPC,
BPK,Brookmans Park,,,,,BPK,
BPN,Blackpool North,,,,,BPN,
BPS,Blackpool South,,,,,BPS,
BPT,Bishopton,,,,,BPT,
BPW,Bristol Parkway,,,,,BPW,
BRA,Brora,,,,,BRA,
BRC,Breich,,,,,BRC,
BRE,Brentwood,,,,,BRE,
BRF,Brierfield,,,,,BRF,
BRG,Borough Green & Wrotham,,,,,BRG,
BRH,Borth,,,,,BRH,
BRI,Bristol Temple Meads,,,,,BRI,
BRK,Berwick,,,,,BRK,
BRL,Barrhill,,,,,BRL,
BRM,Barmouth,,,,,BRM,
BRN,Bearsden,,,,,BRN,
BRO,Bridge of Orchy,,,,,BRO,
BRP,Brampton (Suffolk),,,,,BRP,
BRR,Barrhead,,,,,BRR,
BRS,Berrylands,,,,,BRS,
BRT,Barlaston,,,,,BRT,
BRU,Bruton,,,,,BRU,
BRV,Bournville,,,,,BRV,
BRW,Brunswick,,,,,BRW,
BRX,Brixton,,,,,BRX,
BRY,Barry,,,,,BRY,
BSB,Bleasby,,,,,BSB,
BSC,Bescot Stadium,,,,,BSC,
BSD,Bearsted,,,,,BSD,
BSE,Bury St Edmunds,,,,,BSE,
BSH,Bushey,,,,,BSH,
BSI,Balmossie,,,,,BSI,
BSJ,Bedford St Johns,,,,,BSJ,
BSK,Basingstoke,,,,,BSK,
BSL,Beasdale,,,,,BSL,
BSM,Branksome,,,,,BSM,
BSN,Boston,,,,,BSN,
BSO,Basildon,,,,,BSO,
BSP,Brondesbury Park,,,,,BSP,
BSR,Broadstairs,,,,,BSR,
BSS,Barassie,,,,,BSS,
BSU,Brunstane,,,,,BSU,
BSW,Birmingham Snow Hill,,,,,BSW,
BSY,Brondesbury,,,,,BSY,
BTB,Barnetby,,,,,BTB,
BTD,Bolton-on-Dearne,,,,,BTD,
BTE,Bitterne,,,,,BTE,
BTF,Bottesford,,,,,BTF,
BTG,Barnt Green,,,,,BTG,
BTH,Bath Spa,,,,,BTH,
BTL,Batley,,,,,BTL,
BTN,Brighton,,,,,BTN,
BTO,Betchworth,,,,,BTO,
BTP,Braintree Freeport,,,,,BTP,
BTR,Braintree,,,,,BTR,
BTS,Burntisland,,,,,BTS,
BTT,Battersby,,,,,BTT,
BTY,Bentley,,,,,BTY,
BUB,Burnley Barracks,,,,,BUB,
BUC,Buckenham,,,,,BUC,
BUD,Burneside,,,,,BUD,
BUE,Bures,,,,,BUE,
BUG,Burgess Hill,,,,,BUG,
BUH,Brough,,,,,BUH,
BUI,Burnside,,,,,BUI,
BUJ,Burton Joyce,,,,,BUJ,
BUK,Bucknell,,,,,BUK,
BUL,Butlers Lane,,,,,BUL,
BUO,Bursledon,,,,,BUO,
BUS,Busby,,,,,BUS,
BUT,Burton-on-Trent,,,,,BUT,
BUU,Burnham-on-Crouch,,,,,BUU,
BUW,Burley-in-Wharfedale,,,,,BUW,
BUX,Buxton,,,,,BUX,
BUY,Burley Park,,,,,BUY,
BVD,Belvedere,,,,,BVD,
BWB,Bow Brickhill,,,,,BWB,
BWD,Birchwood,,,,,BWD,
BWG,Bowling,,,,,BWG,
BWK,Berwick-upon-Tweed,,,,,BWK,
BWN,Bloxwich North,,,,,BWN,
BWO,Bricket Wood,,,,,BWO,
BWS,Barrow Upon Soar,,,,,BWS,
BWT,Bridgwater,,,,,BWT,
BXB,Broxbourne,,,,,BXB,
BXD,Buxted,,,,,BXD,
BXH,Bexleyheath,,,,,BXH,
BXW,Boxhill & Westhumble,,,,,BXW,
BXY,Bexley,,,,,BXY,
BYA,Berney Arms,,,,,BYA,
BYB,Blythe Bridge,,,,,BYB,
BYC,Betws-y-Coed,,,,,BYC,
BYD,Barry Docks,,,,,BYD,
BYE,Bynea,,,,,BYE,
BYF,Broughty Ferry,,,,,BYF,
BYI,Barry Island,,,,,BYI,
BYK,Bentley (South Yorks),,,,,BYK,
BYL,Barry Links,,,,,BYL,
BYM,Burnley Manchester Road,,,,,BYM,
BYN,Bryn,,,,,BYN,
BYS,Braystones,,,,,BYS,
CAD,Cadoxton,,,,,CAD,
CAG,Carrbridge,,,,,CAG,
CAK,Cark,,,,,CAK,
CAM,Camberley,,,,,CAM,
CAN,Carnoustie,,,,,CAN,
CAO,Cannock,,,,,CAO,
CAR,Carlisle,,,,,CAR,
CAS,Castleton,,,,,CAS,
CAT,Caterham,,,,,CAT,
CAU,Causeland,,,,,CAU,
CAY,Carntyne,,,,,CAY,
CBB,Carbis Bay,,,,,CBB,
CBC,Coatbridge Central,,,,,CBC,
CBE,Canterbury East,,,,,CBE,
CBG,Cambridge,,,,,CBG,
CBH,Cambridge Heath,,,,,CBH,
CBL,Cambuslang,,,,,CBL,
CBN,Camborne,,,,,CBN,
CBP,Castle Bar Park,,,,,CBP,
CBR,Cooksbridge,,,,,CBR,
CBS,Coatbridge Sunnyside,,,,,CBS,
CBW,Canterbury West,,,,,CBW,
CBY,Charlbury,,,,,CBY,
CCC,Criccieth,,,,,CCC,
CCH,Chichester,,,,,CCH,
CCT,Cathcart,,,,,CCT,
CDB,Cardiff Bay,,,,,CDB,
CDD,Cardenden,,,,,CDD,
CDF,Cardiff Central,,,,,CDF,
CDI,Crediton,,,,,CDI,
CDO,Cardonald,,,,,CDO,
CDQ,Cardiff Queen Street,,,,,CDQ,
CDR,Cardross,,,,,CDR,
CDS,Coulsdon South,,,,,CDS,
CDT,Caldicot,,,,,CDT,
CDU,Cam & Dursley,,,,,CDU,
CDY,Cartsdyke,,,,,CDY,
CEA,Cleland,,,,,CEA,
CED,Cheddington,,,,,CED,
CEF,Chapel-en-le-Frith,,,,,CEF,
CEH,Coleshill Parkway,,,,,CEH,
CEL,Chelford,,,,,CEL,
CES,Cressing,,,,,CES,
CET,Colchester Town,,,,,CET,
CEY,Cononley,,,,,CEY,
CFB,Catford Bridge,,,,,CFB,
CFD,Castleford,,,,,CFD,
CFF,Croftfoot,,,,,CFF,
CFH,Chafford Hundred,,,,,CFH,
CFL,Crossflatts,,,,,CFL,
CFN,Clifton Down,,,,,CFN,
CFO,Chalfont & Latimer,,,,,CFO,
CFR,Chandlers Ford,,,,,CFR,
CFT,Crofton Park,,,,,CFT,
CGD,Craigendoran,,,,,CGD,
CGM,Cottingham,,,,,CGM,
CGN,Cogan,,,,,CGN,
CGW,Caergwrle,,,,,CGW,
CHC,Charing Cross (Glasgow),,,,,CHC,
CHD,Chesterfield,,,,,CHD,
CHE,Cheam,,,,,CHE,
CHF,Church Fenton,,,,,CHF,
CHG,Charing,,,,,CHG,
CHH,Christs Hospital,,,,,CHH,
CHI,Chingford,,,,,CHI,
CHK,Chiswick,,,,,CHK,
CHL,Chilworth,,,,,CHL,
CHM,Chelmsford,,,,,CHM,
CHN,Cheshunt,,,,,CHN,
CHO,Cholsey,,,,,CHO,
CHP,Chipstead,,,,,CHP,
CHR,Christchurch,,,,,CHR,
CHT,Chathill,,,,,CHT,
CHU,Cheadle Hulme,,,,,CHU,
CHW,Chalkwell,,,,,CHW,
CHX,London Charing Cross,,,,,CHX,
CHY,Chertsey,,,,,CHY,
CIL,Chilham,,,,,CIL,
CIM,Cilmeri,,,,,CIM,
CIR,Caledonian Rd & Barnsbury,,,,,CIR,
CIT,Chislehurst,,,,,CIT,
CKH,Corkerhill,,,,,CKH,
CKL,Corkickle,,,,,CKL,
CKN,Crewkerne,,,,,CKN,
CKS,Clarkston,,,,,CKS,
CKT,Crookston,,,,,CKT,
CKY,Crosskeys,,,,,CKY,
CLA,Clandon,,,,,CLA,
CLC,Castle Cary,,,,,CLC,
CLD,Chelsfield,,,,,CLD,
CLE,Cleethorpes,,,,,CLE,
CLG,Claygate,,,,,CLG,
CLH,Clitheroe,,,,,CLH,
CLI,Clifton,,,,,CLI,
CLJ,Clapham Junction,,,,,CLJ,
CLK,Clock House,,,,,CLK,
CLL,Collington,,,,,CLL,
CLM,Collingham,,,,,CLM,
CLN,Chapeltown,,,,,CLN,
CLP,Clapham High Street,,,,,CLP,
CLR,Clarbeston Road,,,,,CLR,
CLS,Chester-le-Street,,,,,CLS,
CLT,Clacton on Sea,,,,,CLT,
CLU,Carluke,,,,,CLU,
CLV,Claverdon,,,,,CLV,
CLW,Chorleywood,,,,,CLW,
CLY,Chinley,,,,,CLY,
CMD,Camden Road,,,,,CMD,
CME,Combe,,,,,CME,
CMF,Cromford,,,,,CMF,
CMH,Cwmbach,,,,,CMH,
CML,Carmyle,,,,,CML,
CMN,Carmarthen,,,,,CMN,
CMO,Camelon,,,,,CMO,
CMR,Cromer,,,,,CMR,
CMY,Crossmyloof,,,,,CMY,
CNE,Colne,,,,,CNE,
CNF,Carnforth,,,,,CNF,
CNG,Congleton,,,,,CNG,
CNL,Canley,,,,,CNL,
CNM,Cheltenham Spa,,,,,CNM,
CNN,Canonbury,,,,,CNN,
CNO,Chetnole,,,,,CNO,
CNP,Conway Park,,,,,CNP,
CNR,Crianlarich,,,,,CNR,
CNS,Conisbrough,,,,,CNS,
CNW,Conwy,,,,,CNW,
CNY,Cantley,,,,,CNY,
COA,Coatdyke,,,,,COA,
COB,Cooden Beach,,,,,COB,
COE,Coombe Junction Halt,,,,,COE,
COH,Crowborough,,,,,COH,
COI,Crosshill,,,,,COI,
COL,Colchester,,,,,COL,
COM,Commondale,,,,,COM,
CON,Connel Ferry,,,,,CON,
COO,Cookham,,,,,COO,
COP,Copplestone,,,,,COP,
COR,Corby,,,,,COR,
COS,Cosford,,,,,COS,
COT,Cottingley,,,,,COT,
COV,Coventry,,,,,COV,
COW,Cowdenbeath,,,,,COW,
COY,Coryton,,,,,COY,
CPA,Corpach,,,,,CPA,
CPH,Caerphilly,,,,,CPH,
CPK,Carpenders Park,,,,,CPK,
CPM,Chippenham,,,,,CPM,
CPN,Chapelton,,,,,CPN,
CPT,Clapton,,,,,CPT,
CPU,Capenhurst,,,,,CPU,
CPW,Chepstow,,,,,CPW,
CPY,Clapham (North Yorkshire),,,,,CPY,
CRA,Cradley Heath,,,,,CRA,
CRB,Corbridge,,,,,CRB,
CRD,Chester Road,,,,,CRD,
CRE,Crewe,,,,,CRE,
CRF,Carfin,,,,,CRF,
CRG,Cross Gates,,,,,CRG,
CRH,Crouch Hill,,,,,CRH,
CRI,Cricklewood,,,,,CRI,
CRK,Chirk,,,,,CRK,
CRL,Chorley,,,,,CRL,
CRM,Cramlington,,,,,CRM,
CRN,Crowthorne,,,,,CRN,
CRO,Croy,,,,,CRO,
CRR,Corrour,,,,,CRR,
CRS,Carstairs,,,,,CRS,
CRT,Chartham,,,,,CRT,
CRV,Craven Arms,,,,,CRV,
CRW,Crawley,,,,,CRW,
CRY,Crayford,,,,,CRY,
CSA,Cosham,,,,,CSA,
CSB,Carshalton Beeches,,,,,CSB,
CSD,Cobham & Stoke d'Abernon,,,,,CSD,
CSG,Cressington,,,,,CSG,
CSH,Carshalton,,,,,CSH,
CSK,Calstock,,,,,CSK,
CSL,Codsall,,,,,CSL,
CSM,Castleton Moor,,,,,CSM,
CSN,Chessington North,,,,,CSN,
CSO,Croston,,,,,CSO,
CSR,Chassen Road,,,,,CSR,
CSS,Chessington South,,,,,CSS,
CST,London Cannon Street,,,,,CST,
CSW,Chestfield & Swalecliffe,,,,,CSW,
CSY,Coseley,,,,,CSY,
CTE,Chatelherault,,,,,CTE,
CTF,Catford,,,,,CTF,
CTH,Chadwell Heath,,,,,CTH,
CTK,City Thameslink,,,,,CTK,
CTL,Cattal,,,,,CTL,
CTM,Chatham,,,,,CTM,
CTN,Charlton,,,,,CTN,
CTO,Carlton,,,,,CTO,
CTR,Chester,,,,,CTR,
CTT,Church Stretton,,,,,CTT,
CTW,Church & Oswaldtwistle,,,,,CTW,
CUA,Culrain,,,,,CUA,
CUB,Cumbernauld,,,,,CUB,
CUD,Cuddington,,,,,CUD,
CUF,Cuffley,,,,,CUF,
CUH,Curriehill,,,,,CUH,
CUM,Culham,,,,,CUM,
CUP,Cupar,,,,,CUP,
CUW,Clunderwen,,,,,CUW,
CUX,Cuxton,,,,,CUX,
CWB,Colwyn Bay,,,,,CWB,
CWC,Chappel & Wakes Colne,,,,,CWC,
CWD,Creswell,,,,,CWD,
CWE,Crowle,,,,,CWE,
CWH,Crews Hill,,,,,CWH,
CWL,Colwall,,,,,CWL,
CWM,Cwmbran,,,,,CWM,
CWN,Cowden,,,,,CWN,
CWS,Caersws,,,,,CWS,
CWU,Crowhurst,,,,,CWU,
CYB,Cefn-y-Bedd,,,,,CYB,
CYK,Clydebank,,,,,CYK,
CYN,Cynghordy,,,,,CYN,
CYP,Crystal Palace,,,,,CYP,
CYS,Cathays,,,,,CYS,
CYT,Cherry Tree,,,,,CYT,
DAG,Dalgety Bay,,,,,DAG,
DAK,Dalmarnock,,,,,DAK,
DAL,Dalmally,,,,,DAL,
DAM,Dalmeny,,,,,DAM,
DAN,Darnall,,,,,DAN,
DAR,Darlington,,,,,DAR,
DAT,Datchet,,,,,DAT,
DBC,Dumbarton Central,,,,,DBC,
DBD,Denby Dale,,,,,DBD,
DBE,Dumbarton East,,,,,DBE,
DBG,Mottisfont & Dunbridge,,,,,DBG,
DBL,Dunblane,,,,,DBL,
DBR,Derby Road,,,,,DBR,
DBY,Derby,,,,,DBY,
DCG,Duncraig,,,,,DCG,
DCH,Dorchester South,,,,,DCH,
DCT,Danescourt,,,,,DCT,
DCW,Dorchester West,,,,,DCW,
DDG,Dorridge,,,,,DDG,
DDK,Dagenham Dock,,,,,DDK,
DDP,Dudley Port,,,,,DDP,
DEA,Deal,,,,,DEA,
DEE,Dundee,,,,,DEE,
DEN,Dean,,,,,DEN,
DEP,Deptford,,,,,DEP,
DEW,Dewsbury,,,,,DEW,
DFD,Dartford,,,,,DFD,
DFE,Dunfermline Town,,,,,DFE,
DFI,Duffield,,,,,DFI,
DFL,Dunfermline Queen Margaret,,,,,DFL,
DFP,Dublin Ferryport,,,,,DFP,
DFR,Drumfrochar,,,,,DFR,
DGC,Denham Golf Club,,,,,DGC,
DGL,Dingle Road,,,,,DGL,
DGT,Deansgate,,,,,DGT,
DGY,Deganwy,,,,,DGY,
DHM,Durham,,,,,DHM,
DHN,Deighton,,,,,DHN,
DID,Didcot Parkway,,,,,DID,
DIG,Digby & Sowton,,,,,DIG,
DIN,Dingwall,,,,,DIN,
DIS,Diss,,,,,DIS,
DKD,Dunkeld & Birnam,,,,,DKD,
DKG,Dorking,,,,,DKG,
DKR,Derker,,,,,DKR,
DKT,Dorking West,,,,,DKT,
DLG,Dolgarrog,,,,,DLG,
DLH,Doleham,,,,,DLH,
DLK,Dalston Kingsland,,,,,DLK,
DLM,Delamere,,,,,DLM,
DLR,Dalreoch,,,,,DLR,
DLS,Dalston,,,,,DLS,
DLT,Dalton,,,,,DLT,
DLW,Dalwhinnie,,,,,DLW,
DLY,Dalry,,,,,DLY,
DMC,Drumchapel,,,,,DMC,
DMF,Dumfries,,,,,DMF,
DMG,Dinas (Rhondda),,,,,DMG,
DMH,Dilton Marsh,,,,,DMH,
DMK,Denmark Hill,,,,,DMK,
DMP,Dumpton Park,,,,,DMP,
DMR,Dalmuir,,,,,DMR,
DMS,Dormans,,,,,DMS,
DMY,Drumry,,,,,DMY,
DND,Dinsdale,,,,,DND,
DNG,Dunton Green,,,,,DNG,
DNL,Dunlop,,,,,DNL,
DNM,Denham,,,,,DNM,
DNN,Dean Lane,,,,,DNN,
DNO,Dunrobin Castle,,,,,DNO,
DNS,Dinas Powys,,,,,DNS,
DNT,Dent,,,,,DNT,
DNY,Danby,,,,,DNY,
DOC,Dockyard,,,,,DOC,
DOD,Dodworth,,,,,DOD,
DOL,Dolau,,,,,DOL,
DON,Doncaster,,,,,DON,
DOR,Dore,,,,,DOR,
DOT,Dunston,,,,,DOT,
DOW,Downham Market,,,,,DOW,
DPD,Dorking Deepdene,,,,,DPD,
DPS,Dublin Port - Stena,,,,,DPS,
DPT,Devonport,,,,,DPT,
DRF,Driffield,,,,,DRF,
DRG,Drayton Green,,,,,DRG,
DRI,Drigg,,,,,DRI,
DRM,Drem,,,,,DRM,
DRN,Duirinish,,,,,DRN,
DRO,Dronfield,,,,,DRO,
DRT,Darton,,,,,DRT,
DRU,Drumgelloch,,,,,DRU,
DSL,Disley,,,,,DSL,
DSM,Darsham,,,,,DSM,
DST,Duke Street,,,,,DST,
DSY,Daisy Hill,,,,,DSY,
DTG,Dinting,,,,,DTG,
DTN,Denton,,,,,DTN,
DTW,Droitwich Spa,,,,,DTW,
DUD,Duddeston,,,,,DUD,
DUL,Dullingham,,,,,DUL,
DUM,Dumbreck,,,,,DUM,
DUN,Dunbar,,,,,DUN,
DUR,Durrington-on-Sea,,,,,DUR,
DVC,Dovercourt,,,,,DVC,
DVH,Dove Holes,,,,,DVH,
DVN,Davenport,,,,,DVN,
DVP,Dover Priory,,,,,DVP,
DVY,Dovey Junction,,,,,DVY,
DWD,Dolwyddelan,,,,,DWD,
DWL,Dawlish,,,,,DWL,
DWN,Darwen,,,,,DWN,
DWW,Dawlish Warren,,,,,DWW,
DYC,Dyce,,,,,DYC,
DYF,Dyffryn Ardudwy,,,,,DYF,
DYP,Drayton Park,,,,,DYP,
DZY,Danzey,,,,,DZY,
EAD,Earlsfield,,,,,EAD,
EAG,Eaglescliffe,,,,,EAG,
EAL,Ealing Broadway,,,,,EAL,
EAR,Earley,,,,,EAR,
EBA,Euxton Balshaw Lane,,,,,EBA,
EBD,Ebbsfleet International Domestic,,,,,EBD,
EBK,Eastbrook,,,,,EBK,
EBN,Eastbourne,,,,,EBN,
EBR,Edenbridge,,,,,EBR,
EBT,Edenbridge Town,,,,,EBT,
EBV,Ebbw Vale Parkway,,,,,EBV,
ECC,Eccles,,,,,ECC,
ECL,Eccleston Park,,,,,ECL,
ECR,East Croydon,,,,,ECR,
ECS,Eccles Road,,,,,ECS,
EDB,Edinburgh Waverley,,,,,EDB,
EDG,Edge Hill,,,,,EDG,
EDL,Edale,,,,,EDL,
EDN,Eden Park,,,,,EDN,
EDP,Edinburgh Park,,,,,EDP,
EDR,Edmonton Green,,,,,EDR,
EDW,East Dulwich,,,,,EDW,
EDY,East Didsbury,,,,,EDY,
EFF,Effingham Junction,,,,,EFF,
EFL,East Farleigh,,,,,EFL,
EGF,East Garforth,,,,,EGF,
EGG,Eggesford,,,,,EGG,
EGH,Egham,,,,,EGH,
EGN,Eastrington,,,,,EGN,
EGR,East Grinstead,,,,,EGR,
EGT,Egton,,,,,EGT,
EKL,East Kilbride,,,,,EKL,
ELD,Earlswood (Surrey),,,,,ELD,
ELE,Elmers End,,,,,ELE,
ELG,Elgin,,,,,ELG,
ELO,Elton & Orston,,,,,ELO,
ELP,Ellesmere Port,,,,,ELP,
ELR,Elsecar,,,,,ELR,
ELS,Elstree & Borehamwood,,,,,ELS,
ELW,Eltham,,,,,ELW,
ELY,Ely,,,,,ELY,
EMD,East Midlands Parkway,,,,,EMD,
EML,East Malling,,,,,EML,
EMP,Emerson Park,,,,,EMP,
EMS,Emsworth,,,,,EMS,
ENC,Enfield Chase,,,,,ENC,
ENF,Enfield Town,,,,,ENF,
ENL,Enfield Lock,,,,,ENL,
ENT,Entwistle,,,,,ENT,
EPD,Epsom Downs,,,,,EPD,
EPH,Elephant & Castle,,,,,EPH,
EPS,Epsom,,,,,EPS,
ERA,Eastham Rake,,,,,ERA,
ERD,Erdington,,,,,ERD,
ERH,Erith,,,,,ERH,
ERI,Eridge,,,,,ERI,
ERL,Earlestown,,,,,ERL,
ESD,Elmstead Woods,,,,,ESD,
ESH,Esher,,,,,ESH,
ESL,Eastleigh,,,,,ESL,
ESM,Elsenham,,,,,ESM,
EST,Easterhouse,,,,,EST,
ESW,Elmswell,,,,,ESW,
ETC,Etchingham,,,,,ETC,
ETL,East Tilbury,,,,,ETL,
EUS,London Euston,,,,,EUS,
EVE,Evesham,,,,,EVE,
EWD,Earlswood (West Midlands),,,,,EWD,
EWE,Ewell East,,,,,EWE,
EWR,East Worthing,,,,,EWR,
EWW,Ewell West,,,,,EWW,
EXC,Exeter Central,,,,,EXC,
EXD,Exeter St David's,,,,,EXD,
EXG,Exhibition Centre,,,,,EXG,
EXM,Exmouth,,,,,EXM,
EXN,Exton,,,,,EXN,
EXR,Essex Road,,,,,EXR,
EXT,Exeter St Thomas,,,,,EXT,
EYN,Eynsford,,,,,EYN,
FAL,Falmouth Docks,,,,,FAL,
FAV,Faversham,,,,,FAV,
FAZ,Fazakerley,,,,,FAZ,
FBY,Formby,,,,,FBY,
FCN,Falconwood,,,,,FCN,
FEA,Featherstone,,,,,FEA,
FEL,Feltham,,,,,FEL,
FEN,Fenny Stratford,,,,,FEN,
FER,Fernhill,,,,,FER,
FFA,Ffairfach,,,,,FFA,
FFD,Freshford,,,,,FFD,
FGH,Fishguard Harbour,,,,,FGH,
FGT,Faygate,,,,,FGT,
FIL,Filey,,,,,FIL,
FIN,Finstock,,,,,FIN,
FIT,Filton Abbey Wood,,,,,FIT,
FKC,Folkestone Central,,,,,FKC,
FKG,Falkirk Grahamston,,,,,FKG,
FKK,Falkirk High,,,,,FKK,
FKW,Folkestone West,,,,,FKW,
FLD,Fauldhouse,,,,,FLD,
FLE,Fleet,,,,,FLE,
FLF,Flowery Field,,,,,FLF,
FLI,Flixton,,,,,FLI,
FLM,Flimby,,,,,FLM,
FLN,Flint,,,,,FLN,
FLS,Failsworth,,,,,FLS,
FLT,Flitwick,,,,,FLT,
FLW,Fulwell,,,,,FLW,
FLX,Felixstowe,,,,,FLX,
FML,Frimley,,,,,FML,
FMR,Falmer,,,,,FMR,
FMT,Falmouth Town,,,,,FMT,
FNB,Farnborough (Main),,,,,FNB,
FNC,Farncombe,,,,,FNC,
FNH,Farnham,,,,,FNH,
FNN,Farnborough North,,,,,FNN,
FNR,Farningham Road,,,,,FNR,
FNT,Feniton,,,,,FNT,
FNV,Furness Vale,,,,,FNV,
FNW,Farnworth,,,,,FNW,
FNY,Finchley Road & Frognal,,,,,FNY,
FOC,Falls of Cruachan,,,,,FOC,
FOD,Ford,,,,,FOD,
FOG,Forest Gate,,,,,FOG,
FOH,Forest Hill,,,,,FOH,
FOK,Four Oaks,,,,,FOK,
FOR,Forres,,,,,FOR,
FOX,Foxfield,,,,,FOX,
FPK,Finsbury Park,,,,,FPK,
FRB,Fairbourne,,,,,FRB,
FRD,Frodsham,,,,,FRD,
FRE,Freshfield,,,,,FRE,
FRF,Fairfield,,,,,FRF,
FRI,Frinton on Sea,,,,,FRI,
FRL,Fairlie,,,,,FRL,
FRM,Fareham,,,,,FRM,
FRN,Fearn,,,,,FRN,
FRO,Frome,,,,,FRO,
FRS,Forsinard,,,,,FRS,
FRT,Frant,,,,,FRT,
FRW,Fairwater,,,,,FRW,
FRY,Ferriby,,,,,FRY,
FSB,Fishbourne (Sussex),,,,,FSB,
FSG,Fishersgate,,,,,FSG,
FSK,Fiskerton,,,,,FSK,
FST,London Fenchurch Street,,,,,FST,
FTM,Fort Matilda,,,,,FTM,
FTN,Fratton,,,,,FTN,
FTW,Fort William,,,,,FTW,
FWY,Five Ways,,,,,FWY,
FXN,Foxton,,,,,FXN,
FYS,Ferryside,,,,,FYS,
FZH,Frizinghall,,,,,FZH,
FZP,Furze Platt,,,,,FZP,
FZW,Fitzwilliam,,,,,FZW,
GAR,Garrowhill,,,,,GAR,
GBD,Gilberdyke,,,,,GBD,
GBK,Greenbank,,,,,GBK,
GBL,Gainsborough Lea Road,,,,,GBL,
GBS,Goring-by-Sea,,,,,GBS,
GCH,Garelochhead,,,,,GCH,
GCR,Gloucester,,,,,GCR,
GCT,Great Coates,,,,,GCT,
GCW,Glan Conwy,,,,,GCW,
GDH,Gordon Hill,,,,,GDH,
GDL,Godley,,,,,GDL,
GDN,Godstone,,,,,GDN,
GDP,Gidea Park,,,,,GDP,
GEA,Gretna Green,,,,,GEA,
GER,Gerrards Cross,,,,,GER,
GFD,Greenford,,,,,GFD,
GFF,Gilfach Fargoed,,,,,GFF,
GFN,Giffnock,,,,,GFN,
GGJ,Georgemas Junction,,,,,GGJ,
GGV,Gargrave,,,,,GGV,
GIG,Giggleswick,,,,,GIG,
GIL,Gillingham (Dorset),,,,,GIL,
GIP,Gipsy Hill,,,,,GIP,
GIR,Girvan,,,,,GIR,
GKC,Greenock Central,,,,,GKC,
GKW,Greenock West,,,,,GKW,
GLC,Glasgow Central,,,,,GLC,
GLD,Guildford,,,,,GLD,
GLE,Gleneagles,,,,,GLE,
GLF,Glenfinnan,,,,,GLF,
GLG,Glengarnock,,,,,GLG,
GLH,Glasshoughton,,,,,GLH,
GLM,Gillingham (Kent),,,,,GLM,
GLO,Glossop,,,,,GLO,
GLQ,Glasgow Queen Street,,,,,GLQ,
GLS,Glaisdale,,,,,GLS,
GLT,Glenrothes with Thornton,,,,,GLT,
GLY,Glynde,,,,,GLY,
GLZ,Glazebrook,,,,,GLZ,
GMB,Grimsby Town,,,,,GMB,
GMD,Grimsby Docks,,,,,GMD,
GMG,Garth (Bridgend),,,,,GMG,
GMN,Great Missenden,,,,,GMN,
GMT,Grosmont,,,,,GMT,
GMV,Great Malvern,,,,,GMV,
GMY,Goodmayes,,,,,GMY,
GNB,Gainsborough Central,,,,,GNB,
GNF,Greenfield,,,,,GNF,
GNH,Greenhithe for Bluewater,,,,,GNH,
GNL,Green Lane,,,,,GNL,
GNR,Green Road,,,,,GNR,
GNT,Gunton,,,,,GNT,
GNW,Greenwich,,,,,GNW,
GOB,Gobowen,,,,,GOB,
GOD,Godalming,,,,,GOD,
GOE,Goldthorpe,,,,,GOE,
GOF,Golf Street,,,,,GOF,
GOL,Golspie,,,,,GOL,
GOM,Gomshall,,,,,GOM,
GOO,Goole,,,,,GOO,
GOR,Goring & Streatley,,,,,GOR,
GOS,Grange-Over-Sands,,,,,GOS,
GOX,Goxhill,,,,,GOX,
GPK,Grange Park,,,,,GPK,
GPO,Gospel Oak,,,,,GPO,
GRA,Grantham,,,,,GRA,
GRB,Great Bentley,,,,,GRB,
GRC,Great Chesterford,,,,,GRC,
GRF,Garforth,,,,,GRF,
GRH,Gartcosh,,,,,GRH,
GRK,Gourock,,,,,GRK,
GRL,Greenfaulds,,,,,GRL,
GRN,Grindleford,,,,,GRN,
GRP,Grove Park,,,,,GRP,
GRS,Garscadden,,,,,GRS,
GRT,Grateley,,,,,GRT,
GRV,Gravesend,,,,,GRV,
GRY,Grays,,,,,GRY,
GSC,Gilshochill,,,,,GSC,
GSD,Garsdale,,,,,GSD,
GSL,Gunnislake,,,,,GSL,
GSN,Garston (Hertfordshire),,,,,GSN,
GST,Gathurst,,,,,GST,
GSW,Garswood,,,,,GSW,
GSY,Guiseley,,,,,GSY,
GTA,Great Ayton,,,,,GTA,
GTH,Garth (Powys),,,,,GTH,
GTN,Grangetown,,,,,GTN,
GTO,Gorton,,,,,GTO,
GTR,Goostrey,,,,,GTR,
GTW,Gatwick Airport,,,,,GTW,
GTY,Gatley,,,,,GTY,
GUI,Guide Bridge,,,,,GUI,
GUN,Gunnersbury,,,,,GUN,
GVE,Garve,,,,,GVE,
GVH,Gravelly Hill,,,,,GVH,
GWE,Gwersyllt,,,,,GWE,
GWN,Gowerton,,,,,GWN,
GYM,Great Yarmouth,,,,,GYM,
GYP,Gypsy Lane,,,,,GYP,
HAB,Habrough,,,,,HAB,
HAC,Hackney Downs,,,,,HAC,
HAD,Haddiscoe,,,,,HAD,
HAF,Heathrow Airport T4,,,,,HAF,
HAG,Hagley,,,,,HAG,
HAI,Halling,,,,,HAI,
HAL,Hale,,,,,HAL,
HAM,Hamworthy,,,,,HAM,
HAN,Hanwell,,,,,HAN,
HAP,Hatfield Peverel,,,,,HAP,
HAS,Halesworth,,,,,HAS,
HAT,Hatfield,,,,,HAT,
HAV,Havant,,,,,HAV,
HAY,Hayes & Harlington,,,,,HAY,
HAZ,Hazel Grove,,,,,HAZ,
HBB,Hubberts Bridge,,,,,HBB,
HBD,Hebden Bridge,,,,,HBD,
HBN,Hollingbourne,,,,,HBN,
HBP,Hornbeam Park,,,,,HBP,
HBY,Hartlebury,,,,,HBY,
HCB,Hackbridge,,,,,HCB,
HCH,Holmes Chapel,,,,,HCH,
HCN,Headcorn,,,,,HCN,
HCT,Huncoat,,,,,HCT,
HDB,Haydon Bridge,,,,,HDB,
HDE,Hedge End,,,,,HDE,
HDF,Hadfield,,,,,HDF,
HDG,Heald Green,,,,,HDG,
HDH,Hampstead Heath,,,,,HDH,
HDL,Headstone Lane,,,,,HDL,
HDM,Haddenham & Thame Parkway,,,,,HDM,
HDN,Harlesden,,,,,HDN,
HDW,Hadley Wood,,,,,HDW,
HDY,Headingley,,,,,HDY,
HEC,Heckington,,,,,HEC,
HED,Halewood,,,,,HED,
HEI,Heighington,,,,,HEI,
HEL,Hensall,,,,,HEL,
HEN,Hendon,,,,,HEN,
HER,Hersham,,,,,HER,
HES,Hessle,,,,,HES,
HEV,Hever,,,,,HEV,
HEW,Heworth,,,,,HEW,
HEX,Hexham,,,,,HEX,
HFD,Hereford,,,,,HFD,
HFE,Hertford East,,,,,HFE,
HFN,Hertford North,,,,,HFN,
HFS,Hatfield & Stainforth,,,,,HFS,
HFX,Halifax,,,,,HFX,
HGD,Hungerford,,,,,HGD,
HGF,Hag Fold,,,,,HGF,
HGM,Higham,,,,,HGM,
HGN,Hough Green,,,,,HGN,
HGR,Hither Green,,,,,HGR,
HGS,Hastings,,,,,HGS,
HGT,Harrogate,,,,,HGT,
HGY,Harringay,,,,,HGY,
HHB,Heysham Port,,,,,HHB,
HHD,Holyhead,,,,,HHD,
HHE,Haywards Heath,,,,,HHE,
HHL,Heath High Level,,,,,HHL,
HHY,Highbury & Islington,,,,,HHY,
HIA,Hampton-in-Arden,,,,,HIA,
HIB,High Brooms,,,,,HIB,
HID,Hall I Th Wood,,,,,HID,
HIG,Highbridge & Burnham,,,,,HIG,
HIL,Hillside,,,,,HIL,
HIN,Hindley,,,,,HIN,
HIP,Highams Park,,,,,HIP,
HIR,Horton-in-Ribblesdale,,,,,HIR,
HIT,Hitchin,,,,,HIT,
HKC,Hackney Central,,,,,HKC,
HKH,Hawkhead,,,,,HKH,
HKM,Hykeham,,,,,HKM,
HKN,Hucknall,,,,,HKN,
HKW,Hackney Wick,,,,,HKW,
HLB,Hildenborough,,,,,HLB,
HLC,Helensburgh Central,,,,,HLC,
HLD,Hellifield,,,,,HLD,
HLE,Hillington East,,,,,HLE,
HLF,Hillfoot,,,,,HLF,
HLG,Hall Green,,,,,HLG,
HLI,Healing,,,,,HLI,
HLL,Heath Low Level,,,,,HLL,
HLM,Holmwood,,,,,HLM,
HLN,Harlington,,,,,HLN,
HLR,Hall Road,,,,,HLR,
HLS,Hilsea,,,,,HLS,
HLU,Helensburgh Upper,,,,,HLU,
HLW,Hillington West,,,,,HLW,
HLY,Holytown,,,,,HLY,
HMC,Hampton Court,,,,,HMC,
HMD,Hampden Park,,,,,HMD,
HME,Hamble,,,,,HME,
HML,Hemel Hempstead,,,,,HML,
HMM,Hammerton,,,,,HMM,
HMN,Homerton,,,,,HMN,
HMP,Hampton,,,,,HMP,
HMS,Helmsdale,,,,,HMS,
HMT,Ham Street,,,,,HMT,
HMW,Hampton Wick,,,,,HMW,
HMY,Hairmyres,,,,,HMY,
HNA,Hinton Admiral,,,,,HNA,
HNB,Herne Bay,,,,,HNB,
HNC,Hamilton Central,,,,,HNC,
HND,Hanborough,,,,,HND,
HNF,Hednesford,,,,,HNF,
HNG,Hengoed,,,,,HNG,
HNH,Herne Hill,,,,,HNH,
HNK,Hinckley,,,,,HNK,
HNL,Henley-in-Arden,,,,,HNL,
HNT,Huntly,,,,,HNT,
HNW,Hamilton West,,,,,HNW,
HNX,Hunts Cross,,,,,HNX,
HOC,Hockley,,,,,HOC,
HOD,Hollinwood,,,,,HOD,
HOH,Harrow-on-the-Hill,,,,,HOH,
HOK,Hook,,,,,HOK,
HOL,Holton Heath,,,,,HOL,
HON,Honiton,,,,,HON,
HOO,Hooton,,,,,HOO,
HOP,Hope (Derbyshire),,,,,HOP,
HOR,Horley,,,,,HOR,
HOT,Henley-on-Thames,,,,,HOT,
HOU,Hounslow,,,,,HOU,
HOV,Hove,,,,,HOV,
HOW,Howden,,,,,HOW,
HOY,Honley,,,,,HOY,
HOZ,Howwood (Renfrewshire),,,,,HOZ,
HPA,Honor Oak Park,,,,,HPA,
HPD,Harpenden,,,,,HPD,
HPE,Hope (Flintshire),,,,,HPE,
HPL,Hartlepool,,,,,HPL,
HPN,Hapton,,,,,HPN,
HPQ,Harwich International,,,,,HPQ,
HPT,Hopton Heath,,,,,HPT,
HRD,Harling Road,,,,,HRD,
HRH,Horsham,,,,,HRH,
HRL,Harlech,,,,,HRL,
HRM,Harrietsham,,,,,HRM,
HRN,Hornsey,,,,,HRN,
HRO,Harold Wood,,,,,HRO,
HRR,Harrington,,,,,HRR,
HRS,Horsforth,,,,,HRS,
HRW,Harrow & Wealdstone,,,,,HRW,
HRY,Harringay Green Lanes,,,,,HRY,
HSB,Helsby,,,,,HSB,
HSC,Hoscar,,,,,HSC,
HSD,Hamstead,,,,,HSD,
HSG,Hathersage,,,,,HSG,
HSK,Hassocks,,,,,HSK,
HSL,Haslemere,,,,,HSL,
HST,High St (Glasgow),,,,,HST,
HSW,Heswall,,,,,HSW,
HSY,Horsley,,,,,HSY,
HTC,Heaton Chapel,,,,,HTC,
HTE,Hatch End,,,,,HTE,
HTF,Hartford,,,,,HTF,
HTH,Handforth,,,,,HTH,
HTN,Hatton,,,,,HTN,
HTO,Hightown,,,,,HTO,
HTW,Hartwood,,,,,HTW,
HTY,Hattersley,,,,,HTY,
HUB,Hunmanby,,,,,HUB,
HUD,Huddersfield,,,,,HUD,
HUL,Hull Paragon,,,,,HUL,
HUN,Huntingdon,,,,,HUN,
HUP,Humphrey Park,,,,,HUP,
HUR,Hurst Green,,,,,HUR,
HUT,Hutton Cranswick,,,,,HUT,
HUY,Huyton,,,,,HUY,
HVF,Haverfordwest,,,,,HVF,
HVN,Havenhouse,,,,,HVN,
HWB,Hawarden Bridge,,,,,HWB,
HWC,Harwich Town,,,,,HWC,
HWD,Hawarden,,,,,HWD,
HWH,Haltwhistle,,,,,HWH,
HWI,Horwich Parkway,,,,,HWI,
HWM,Harlow Mill,,,,,HWM,
HWN,Harlow Town,,,,,HWN,
HWV,Heathrow Airport T5,,,,,HWV,
HWW,How Wood,,,,,HWW,
HWY,High Wycombe,,,,,HWY,
HXM,Hoveton & Wroxham,,,,,HXM,
HXX,Heathrow Airport T123,,,,,HXX,
HYB,Honeybourne,,,,,HYB,
HYC,Hyde Central,,,,,HYC,
HYD,Heyford,,,,,HYD,
HYH,Hythe,,,,,HYH,
HYK,Hoylake,,,,,HYK,
HYL,Hayle,,,,,HYL,
HYM,Haymarket,,,,,HYM,
HYN,Hyndland,,,,,HYN,
HYR,Haydons Road,,,,,HYR,
HYS,Hayes (Kent),,,,,HYS,
HYT,Hyde North,,,,,HYT,
HYW,Hinchley Wood,,,,,HYW,
IBM,IBM,,,,,IBM,
IFD,Ilford,,,,,IFD,
IFI,Ifield,,,,,IFI,
IGD,Invergordon,,,,,IGD,
ILK,Ilkley,,,,,ILK,
IMW,Imperial Wharf,,,,,IMW,
INC,Ince,,,,,INC,
INE,Ince & Elton,,,,,INE,
ING,Invergowrie,,,,,ING,
INH,Invershin,,,,,INH,
INK,Inverkeithing,,,,,INK,
INP,Inverkip,,,,,INP,
INR,Inverurie,,,,,INR,
INS,Insch,,,,,INS,
INT,Ingatestone,,,,,INT,
INV,Inverness,,,,,INV,
IPS,Ipswich,,,,,IPS,
IRL,Irlam,,,,,IRL,
IRV,Irvine,,,,,IRV,
ISL,Isleworth,,,,,ISL,
ISP,Islip,,,,,ISP,
IVR,Iver,,,,,IVR,
IVY,Ivybridge,,,,,IVY,
JEQ,Jewellery Quarter,,,,,JEQ,
JHN,Johnstone,,,,,JHN,
JOH,Johnston,,,,,JOH,
JOR,Jordanhill,,,,,JOR,
KBC,Kinbrace,,,,,KBC,
KBF,Kirkby-in-Furness,,,,,KBF,
KBK,Kents Bank,,,,,KBK,
KBN,Kilburn High Road,,,,,KBN,
KBW,Knebworth,,,,,KBW,
KBX,Kirby Cross,,,,,KBX,
KCK,Knockholt,,,,,KCK,
KDB,Kidbrooke,,,,,KDB,
KDG,Kidsgrove,,,,,KDG,
KDY,Kirkcaldy,,,,,KDY,
KEH,Keith,,,,,KEH,
KEI,Keighley,,,,,KEI,
KEL,Kelvedon,,,,,KEL,
KEM,Kemble,,,,,KEM,
KEN,Kendal,,,,,KEN,
KET,Kettering,,,,,KET,
KEY,Keyham,,,,,KEY,
KGE,Kingsknowe,,,,,KGE,
KGH,Kinghorn,,,,,KGH,
KGL,Kings Langley,,,,,KGL,
KGM,Kingham,,,,,KGM,
KGN,Kings Nympton,,,,,KGN,
KGP,Kings Park,,,,,KGP,
KGS,Kings Sutton,,,,,KGS,
KGT,Kilgetty,,,,,KGT,
KGX,London Kings Cross,,,,,KGX,
KID,Kidderminster,,,,,KID,
KIL,Kildonan,,,,,KIL,
KIN,Kingussie,,,,,KIN,
KIR,Kirkby,,,,,KIR,
KIT,Kintbury,,,,,KIT,
KIV,Kiveton Bridge,,,,,KIV,
KKB,Kirkby in Ashfield,,,,,KKB,
KKD,Kirkdale,,,,,KKD,
KKH,Kirkhill,,,,,KKH,
KKM,Kirkham & Wesham,,,,,KKM,
KKN,Kirknewton,,,,,KKN,
KKS,Kirk Sandall,,,,,KKS,
KLD,Kildale,,,,,KLD,
KLM,Kilmaurs,,,,,KLM,
KLN,King's Lynn,,,,,KLN,
KLY,Kenley,,,,,KLY,
KMH,Kempston Hardwick,,,,,KMH,
KMK,Kilmarnock,,,,,KMK,
KML,Kemsley,,,,,KML,
KMP,Kempton Park,,,,,KMP,
KMS,Kemsing,,,,,KMS,
KNA,Knaresborough,,,,,KNA,
KND,Kingswood,,,,,KND,
KNE,Kennett,,,,,KNE,
KNF,Knutsford,,,,,KNF,
KNG,Kingston,,,,,KNG,
KNI,Knighton,,,,,KNI,
KNL,Kensal Green,,,,,KNL,
KNN,Kings Norton,,,,,KNN,
KNO,Knottingley,,,,,KNO,
KNR,Kensal Rise,,,,,KNR,
KNS,Kennishead,,,,,KNS,
KNT,Kenton,,,,,KNT,
KNU,Knucklas,,,,,KNU,
KPA,Kensington Olympia,,,,,KPA,
KPT,Kilpatrick,,,,,KPT,
KRK,Kirkconnel,,,,,KRK,
KSL,Kearsley,,,,,KSL,
KSN,Kearsney,,,,,KSN,
KSW,Kirkby Stephen,,,,,KSW,
KTH,Kent House,,,,,KTH,
KTL,Kirton Lindsey,,,,,KTL,
KTN,Kentish Town,,,,,KTN,
KTW,Kentish Town West,,,,,KTW,
KVD,Kelvindale,,,,,KVD,
KVP,Kiveton Park,,,,,KVP,
KWB,Kew Bridge,,,,,KWB,
KWD,Kirkwood,,,,,KWD,
KWG,Kew Gardens,,,,,KWG,
KWL,Kidwelly,,,,,KWL,
KWN,Kilwinning,,,,,KWN,
KYL,Kyle of Lochalsh,,,,,KYL,
KYN,Keynsham,,,,,KYN,
LAC,Lancing,,,,,LAC,
LAD,Ladywell,,,,,LAD,
LAG,Langwith-Whaley Thorns,,,,,LAG,
LAI,Laindon,,,,,LAI,
LAK,Lakenheath,,,,,LAK,
LAM,Lamphey,,,,,LAM,
LAN,Lancaster,,,,,LAN,
LAP,Lapford,,,,,LAP,
LAR,Largs,,,,,LAR,
LAS,Llansamlet,,,,,LAS,
LAU,Laurencekirk,,,,,LAU,
LAW,Landywood,,,,,LAW,
LAY,Layton,,,,,LAY,
LBG,London Bridge,,,,,LBG,
LBK,Long Buckby,,,,,LBK,
LBO,Loughborough,,,,,LBO,
LBR,Llanbedr,,,,,LBR,
LBT,Larbert,,,,,LBT,
LBZ,Leighton Buzzard,,,,,LBZ,
LCC,Lochluichart,,,,,LCC,
LCG,Lochgelly,,,,,LCG,
LCK,Lockwood,,,,,LCK,
LCL,Lochailort,,,,,LCL,
LCN,Lincoln Central,,,,,LCN,
LCS,Locheilside,,,,,LCS,
LDN,Llandanwg,,,,,LDN,
LDS,Leeds,,,,,LDS,
LDY,Ladybank,,,,,LDY,
LEA,Leagrave,,,,,LEA,
LED,Ledbury,,,,,LED,
LEE,Lee,,,,,LEE,
LEG,Lea Green,,,,,LEG,
LEH,Lea Hall,,,,,LEH,
LEI,Leicester,,,,,LEI,
LEL,Lelant,,,,,LEL,
LEM,Leyton Midland Road,,,,,LEM,
LEN,Lenham,,,,,LEN,
LEO,Leominster,,,,,LEO,
LER,Leytonstone High Road,,,,,LER,
LES,Leigh-on-Sea,,,,,LES,
LET,Letchworth Garden City,,,,,LET,
LEU,Leuchars (for St. Andrews),,,,,LEU,
LEW,Lewisham,,,,,LEW,
LEY,Leyland,,,,,LEY,
LFD,Lingfield,,,,,LFD,
LGB,Langbank,,,,,LGB,
LGD,Lingwood,,,,,LGD,
LGE,Long Eaton,,,,,LGE,
LGF,Longfield,,,,,LGF,
LGG,Langley Green,,,,,LGG,
LGJ,Loughborough Junction,,,,,LGJ,
LGK,Longbeck,,,,,LGK,
LGM,Langley Mill,,,,,LGM,
LGN,Longton,,,,,LGN,
LGO,Llangynllo,,,,,LGO,
LGS,Langside,,,,,LGS,
LGW,Langwathby,,,,,LGW,
LHA,Loch Awe,,,,,LHA,
LHD,Leatherhead,,,,,LHD,
LHE,Loch Eil Outward Bound,,,,,LHE,
LHM,Lealholm,,,,,LHM,
LHO,Langho,,,,,LHO,
LHS,Limehouse,,,,,LHS,
LHW,Lochwinnoch,,,,,LHW,
LIC,Lichfield City,,,,,LIC,
LID,Lidlington,,,,,LID,
LIH,Leigh (Kent),,,,,LIH,
LIN,Linlithgow,,,,,LIN,
LIP,Liphook,,,,,LIP,
LIS,Liss,,,,,LIS,
LIT,Littlehampton,,,,,LIT,
LIV,Liverpool Lime Street,,,,,LIV,
LKE,Lake,,,,,LKE,
LLA,Llanaber,,,,,LLA,
LLC,Llandecwyn,,,,,LLC,
LLD,Llandudno,,,,,LLD,
LLE,Llanelli,,,,,LLE,
LLF,Llanfairfechan,,,,,LLF,
LLG,Llangadog,,,,,LLG,
LLH,Llangennech,,,,,LLH,
LLI,Llandybie,,,,,LLI,
LLJ,Llandudno Junction,,,,,LLJ,
LLL,Llandeilo,,,,,LLL,
LLM,Llangammarch,,,,,LLM,
LLN,Llandaf,,,,,LLN,
LLO,Llandrindod,,,,,LLO,
LLR,Llanharan,,,,,LLR,
LLS,Llanishen,,,,,LLS,
LLT,Llanbister Road,,,,,LLT,
LLV,Llandovery,,,,,LLV,
LLW,Llwyngwril,,,,,LLW,
LLY,Llwynypia,,,,,LLY,
LMS,Leamington Spa,,,,,LMS,
LNB,Llanbradach,,,,,LNB,
LND,Longniddry,,,,,LND,
LNG,Longcross,,,,,LNG,
LNK,Lanark,,,,,LNK,
LNR,Llanwrda,,,,,LNR,
LNW,Llanwrtyd,,,,,LNW,
LNY,Langley,,,,,LNY,
LNZ,Lenzie,,,,,LNZ,
LOB,Longbridge,,,,,LOB,
LOC,Lockerbie,,,,,LOC,
LOF,London Fields,,,,,LOF,
LOH,Lostock Hall,,,,,LOH,
LOO,Looe,,,,,LOO,
LOS,Lostwithiel,,,,,LOS,
LOT,Lostock,,,,,LOT,
LOW,Lowdham,,,,,LOW,
LPG,Llanfairpwll,,,,,LPG,
LPR,Long Preston,,,,,LPR,
LPT,Longport,,,,,LPT,
LPW,Lapworth,,,,,LPW,
LPY,Liverpool South Parkway,,,,,LPY,
LRB,London Road (Brighton),,,,,LRB,
LRD,London Road (Guildford),,,,,LRD,
LRG,Lairg,,,,,LRG,
LRH,Larkhall,,,,,LRH,
LSK,Liskeard,,,,,LSK,
LSN,Livingston North,,,,,LSN,
LST,London Liverpool Street,,,,,LST,
LSW,Leasowe,,,,,LSW,
LSY,Lower Sydenham,,,,,LSY,
LTG,Lostock Gralam,,,,,LTG,
LTH,Llanhilleth,,,,,LTH,
LTK,Little Kimble,,,,,LTK,
LTL,Littleborough,,,,,LTL,
LTM,Lytham,,,,,LTM,
LTN,Luton Airport Parkway,,,,,LTN,
LTP,Littleport,,,,,LTP,
LTS,Lelant Saltings,,,,,LTS,
LTT,Little Sutton,,,,,LTT,
LTV,Lichfield Trent Valley,,,,,LTV,
LUD,Ludlow,,,,,LUD,
LUT,Luton,,,,,LUT,
LUX,Luxulyan,,,,,LUX,
LVC,Liverpool Central,,,,,LVC,
LVG,Livingston South,,,,,LVG,
LVJ,Liverpool James Street,,,,,LVJ,
LVM,Levenshulme,,,,,LVM,
LVN,Littlehaven,,,,,LVN,
LVT,Lisvane & Thornhill,,,,,LVT,
LWH,Lawrence Hill,,,,,LWH,
LWM,Llantwit Major,,,,,LWM,
LWR,Llanrwst,,,,,LWR,
LWS,Lewes,,,,,LWS,
LWT,Lowestoft,,,,,LWT,
LYC,Lympstone Commando,,,,,LYC,
LYD,Lydney,,,,,LYD,
LYE,Lye,,,,,LYE,
LYM,Lympstone Village,,,,,LYM,
LYP,Lymington Pier,,,,,LYP,
LYT,Lymington Town,,,,,LYT,
LZB,Lazonby & Kirkoswald,,,,,LZB,
MAC,Macclesfield,,,,,MAC,
MAG,Maghull,,,,,MAG,
MAI,Maidenhead,,,,,MAI,
MAL,Malden Manor,,,,,MAL,
MAN,Manchester Piccadilly,,,,,MAN,
MAO,Martins Heron,,,,,MAO,
MAR,Margate,,,,,MAR,
MAS,Manors,,,,,MAS,
MAT,Matlock,,,,,MAT,
MAU,Mauldeth Road,,,,,MAU,
MAX,Maxwell Park,,,,,MAX,
MAY,Maybole,,,,,MAY,
MBK,Millbrook (Hants),,,,,MBK,
MBR,Middlesbrough,,,,,MBR,
MCB,Moulsecoomb,,,,,MCB,
MCE,MetroCentre,,,,,MCE,
MCH,March,,,,,MCH,
MCM,Morecambe,,,,,MCM,
MCN,Machynlleth,,,,,MCN,
MCO,Manchester Oxford Road,,,,,MCO,
MCV,Manchester Victoria,,,,,MCV,
MDB,Maidstone Barracks,,,,,MDB,
MDE,Maidstone East,,,,,MDE,
MDG,Midgham,,,,,MDG,
MDL,Middlewood,,,,,MDL,
MDN,Maiden Newton,,,,,MDN,
MDS,Morden South,,,,,MDS,
MDW,Maidstone West,,,,,MDW,
MEC,Meols Cop,,,,,MEC,
MEL,Meldreth,,,,,MEL,
MEN,Menheniot,,,,,MEN,
MEO,Meols,,,,,MEO,
MEP,Meopham,,,,,MEP,
MER,Merthyr Tydfil,,,,,MER,
MES,Melton,,,,,MES,
MEV,Merthyr Vale,,,,,MEV,
MEW,Maesteg (Ewenny Road),,,,,MEW,
MEX,Mexborough,,,,,MEX,
MEY,Merrytown,,,,,MEY,
MFA,Morfa Mawddach,,,,,MFA,
MFF,Minffordd,,,,,MFF,
MFH,Milford Haven,,,,,MFH,
MFL,Mount Florida,,,,,MFL,
MFT,Mansfield,,,,,MFT,
MGM,Metheringham,,,,,MGM,
MGN,Marston Green,,,,,MGN,
MHM,Merstham,,,,,MHM,
MHR,Market Harborough,,,,,MHR,
MHS,Meadowhall,,,,,MHS,
MIA,Manchester Airport,,,,,MIA,
MIC,Micheldever,,,,,MIC,
MIH,Mills Hill,,,,,MIH,
MIJ,Mitcham Junction,,,,,MIJ,
MIK,Micklefield,,,,,MIK,
MIL,Mill Hill Broadway,,,,,MIL,
MIM,Moreton-in-Marsh,,,,,MIM,
MIN,Milliken Park,,,,,MIN,
MIR,Mirfield,,,,,MIR,
MIS,Mistley,,,,,MIS,
MKC,Milton Keynes Central,,,,,MKC,
MKM,Melksham,,,,,MKM,
MKR,Market Rasen,,,,,MKR,
MKT,Marks Tey,,,,,MKT,
MLB,Millbrook (Bedfordshire),,,,,MLB,
MLD,Mouldsworth,,,,,MLD,
MLF,Milford (Surrey),,,,,MLF,
MLG,Mallaig,,,,,MLG,
MLH,Mill Hill (Lancashire),,,,,MLH,
MLM,Millom,,,,,MLM,
MLN,Milngavie,,,,,MLN,
MLR,Milnrow,,,,,MLR,
MLT,Malton,,,,,MLT,
MLW,Marlow,,,,,MLW,
MLY,Morley,,,,,MLY,
MMO,Melton Mowbray,,,,,MMO,
MNC,Markinch,,,,,MNC,
MNE,Manea,,,,,MNE,
MNG,Manningtree,,,,,MNG,
MNN,Menston,,,,,MNN,
MNP,Manor Park,,,,,MNP,
MNR,Manor Road,,,,,MNR,
MOB,Mobberley,,,,,MOB,
MOG,Moorgate,,,,,MOG,
MON,Monifieth,,,,,MON,
MOO,Muir of Ord,,,,,MOO,
MOR,Mortimer,,,,,MOR,
MOS,Moss Side,,,,,MOS,
MOT,Motspur Park,,,,,MOT,
MPK,Mosspark,,,,,MPK,
MPL,Marple,,,,,MPL,
MPT,Morpeth,,,,,MPT,
MRB,Manorbier,,,,,MRB,
MRD,Morchard Road,,,,,MRD,
MRF,Moorfields,,,,,MRF,
MRN,Marden,,,,,MRN,
MRP,Moorthorpe,,,,,MRP,
MRR,Morar,,,,,MRR,
MRS,Monks Risborough,,,,,MRS,
MRT,Moreton (Merseyside),,,,,MRT,
MRY,Maryport,,,,,MRY,
MSD,Moorside,,,,,MSD,
MSH,Mossley Hill,,,,,MSH,
MSK,Marske,,,,,MSK,
MSL,Mossley,,,,,MSL,
MSN,Marsden,,,,,MSN,
MSO,Moston,,,,,MSO,
MSR,Minster,,,,,MSR,
MSS,Moses Gate,,,,,MSS,
MST,Maesteg,,,,,MST,
MSW,Mansfield Woodhouse,,,,,MSW,
MTA,Mountain Ash,,,,,MTA,
MTB,Matlock Bath,,,,,MTB,
MTC,Mitcham Eastfields,,,,,MTC,
MTG,Mottingham,,,,,MTG,
MTH,Motherwell,,,,,MTH,
MTL,Mortlake,,,,,MTL,
MTM,Martin Mill,,,,,MTM,
MTN,Moreton (Dorset),,,,,MTN,
MTO,Marton,,,,,MTO,
MTP,Montpelier,,,,,MTP,
MTS,Montrose,,,,,MTS,
MTV,Mount Vernon,,,,,MTV,
MUB,Musselburgh,,,,,MUB,
MUF,Manchester United FC Halt,,,,,MUF,
MUI,Muirend,,,,,MUI,
MVL,Malvern Link,,,,,MVL,
MYB,London Marylebone,,,,,MYB,
MYH,Maryhill,,,,,MYH,
MYL,Maryland,,,,,MYL,
MYT,Mytholmroyd,,,,,MYT,
MZH,Maze Hill,,,,,MZH,
NAN,Nantwich,,,,,NAN,
NAR,Narberth,,,,,NAR,
NAY,Newton Aycliffe,,,,,NAY,
NBA,New Barnet,,,,,NBA,
NBC,New Beckenham,,,,,NBC,
NBE,Newbridge,,,,,NBE,
NBN,New Brighton,,,,,NBN,
NBR,Narborough,,,,,NBR,
NBT,Norbiton,,,,,NBT,
NBW,North Berwick,,,,,NBW,
NBY,Newbury,,,,,NBY,
NCE,New Clee,,,,,NCE,
NCK,New Cumnock,,,,,NCK,
NCL,Newcastle,,,,,NCL,
NCM,North Camp,,,,,NCM,
NCT,Newark Castle,,,,,NCT,
NDL,North Dulwich,,,,,NDL,
NEH,New Eltham,,,,,NEH,
NEI,Neilston,,,,,NEI,
NEL,Nelson,,,,,NEL,
NEM,New Malden,,,,,NEM,
NES,Neston,,,,,NES,
NET,Netherfield,,,,,NET,
NEW,Newcraighall,,,,,NEW,
NFA,North Fambridge,,,,,NFA,
NFD,Northfield,,,,,NFD,
NFL,Northfleet,,,,,NFL,
NFN,Nafferton,,,,,NFN,
NGT,Newington,,,,,NGT,
NHD,Nunhead,,,,,NHD,
NHE,New Hythe,,,,,NHE,
NHL,New Holland,,,,,NHL,
NHY,New Hey,,,,,NHY,
NIT,Nitshill,,,,,NIT,
NLN,New Lane,,,,,NLN,
NLR,North Llanrwst,,,,,NLR,
NLS,Nailsea & Backwell,,,,,NLS,
NLT,Northolt Park,,,,,NLT,
NLW,Newton-le-Willows,,,,,NLW,
NMC,New Mills Central,,,,,NMC,
NMK,Newmarket,,,,,NMK,
NMN,New Mills Newtown,,,,,NMN,
NMP,Northampton,,,,,NMP,
NMT,Needham Market,,,,,NMT,
NNG,Newark North Gate,,,,,NNG,
NNP,Ninian Park,,,,,NNP,
NNT,Nunthorpe,,,,,NNT,
NOA,Newton-on-Ayr,,,,,NOA,
NOR,Normanton,,,,,NOR,
NOT,Nottingham,,,,,NOT,
NPD,New Pudsey,,,,,NPD,
NQU,North Queensferry,,,,,NQU,
NQY,Newquay,,,,,NQY,
NRB,Norbury,,,,,NRB,
NRC,Newbury Racecourse,,,,,NRC,
NRD,North Road,,,,,NRD,
NRN,Nairn,,,,,NRN,
NRT,Nethertown,,,,,NRT,
NRW,Norwich,,,,,NRW,
NSB,Normans Bay,,,,,NSB,
NSD,Newstead,,,,,NSD,
NSG,New Southgate,,,,,NSG,
NSH,North Sheen,,,,,NSH,
NTA,Newton Abbot,,,,,NTA,
NTB,Norton Bridge,,,,,NTB,
NTC,Newton St Cyres,,,,,NTC,
NTH,Neath,,,,,NTH,
NTL,Netley,,,,,NTL,
NTN,Newton (Lanarks),,,,,NTN,
NTR,Northallerton,,,,,NTR,
NUF,Nutfield,,,,,NUF,
NUM,Northumberland Park,,,,,NUM,
NUN,Nuneaton,,,,,NUN,
NUT,Nutbourne,,,,,NUT,
NVH,Newhaven Harbour,,,,,NVH,
NVN,Newhaven Town,,,,,NVN,
NVR,Navigation Road,,,,,NVR,
NWA,North Walsham,,,,,NWA,
NWB,North Wembley,,,,,NWB,
NWD,Norwood Junction,,,,,NWD,
NWE,Newport (Essex),,,,,NWE,
NWI,Northwich,,,,,NWI,
NWM,New Milton,,,,,NWM,
NWN,Newton for Hyde,,,,,NWN,
NWP,Newport (S. Wales),,,,,NWP,
NWR,Newtonmore,,,,,NWR,
NWT,Newtown (Powys),,,,,NWT,
NWX,New Cross,,,,,NWX,
NXG,New Cross Gate,,,,,NXG,
OBN,Oban,,,,,OBN,
OCK,Ockendon,,,,,OCK,
OHL,Old Hill,,,,,OHL,
OKE,Okehampton,,,,,OKE,
OKL,Oakleigh Park,,,,,OKL,
OKM,Oakham,,,,,OKM,
OKN,Oakengates,,,,,OKN,
OLD,Old Street,,,,,OLD,
OLF,Oldfield Park,,,,,OLF,
OLM,Oldham Mumps,,,,,OLM,
OLT,Olton,,,,,OLT,
OLW,Oldham Werneth,,,,,OLW,
OLY,Ockley,,,,,OLY,
OMS,Ormskirk,,,,,OMS,
OPK,Orrell Park,,,,,OPK,
ORE,Ore,,,,,ORE,
ORN,Old Roan,,,,,ORN,
ORP,Orpington,,,,,ORP,
ORR,Orrell,,,,,ORR,
OTF,Otford,,,,,OTF,
OUN,Oulton Broad North,,,,,OUN,
OUS,Oulton Broad South,,,,,OUS,
OUT,Outwood,,,,,OUT,
OVE,Overpool,,,,,OVE,
OVR,Overton,,,,,OVR,
OXF,Oxford,,,,,OXF,
OXN,Oxenholme Lake District,,,,,OXN,
OXS,Oxshott,,,,,OXS,
OXT,Oxted,,,,,OXT,
PAD,London Paddington,,,,,PAD,
PAL,Palmers Green,,,,,PAL,
PAN,Pangbourne,,,,,PAN,
PAR,Par,,,,,PAR,
PAT,Patricroft,,,,,PAT,
PBL,Parbold,,,,,PBL,
PBO,Peterborough,,,,,PBO,
PBR,Potters Bar,,,,,PBR,
PBY,Pembrey & Burry Port,,,,,PBY,
PCD,Pencoed,,,,,PCD,
PCN,Paisley Canal,,,,,PCN,
PDG,Padgate,,,,,PDG,
PDW,Paddock Wood,,,,,PDW,
PEA,Peartree,,,,,PEA,
PEB,Pevensey Bay,,,,,PEB,
PEG,Pegswood,,,,,PEG,
PEM,Pemberton,,,,,PEM,
PEN,Penarth,,,,,PEN,
PER,Penrhiwceiber,,,,,PER,
PES,Pensarn (Gwynedd),,,,,PES,
PET,Petts Wood,,,,,PET,
PEV,Pevensey & Westham,,,,,PEV,
PEW,Pewsey,,,,,PEW,
PFL,Purfleet,,,,,PFL,
PFM,Pontefract Monkhill,,,,,PFM,
PFR,Pontefract Baghill,,,,,PFR,
PFY,Poulton-le-Fylde,,,,,PFY,
PGM,Pengam,,,,,PGM,
PGN,Paignton,,,,,PGN,
PHG,Penhelig,,,,,PHG,
PHR,Penshurst,,,,,PHR,
PIL,Pilning,,,,,PIL,
PIN,Pinhoe,,,,,PIN,
PIT,Pitlochry,,,,,PIT,
PKG,Penkridge,,,,,PKG,
PKS,Parkstone (Dorset),,,,,PKS,
PKT,Park Street,,,,,PKT,
PLC,Pluckley,,,,,PLC,
PLD,Portslade,,,,,PLD,
PLE,Pollokshields East,,,,,PLE,
PLG,Polegate,,,,,PLG,
PLK,Plockton,,,,,PLK,
PLM,Plumley,,,,,PLM,
PLN,Portlethen,,,,,PLN,
PLS,Pleasington,,,,,PLS,
PLT,Pontlottyn,,,,,PLT,
PLU,Plumstead,,,,,PLU,
PLW,Pollokshields West,,,,,PLW,
PLY,Plymouth,,,,,PLY,
PMA,Portsmouth Arms,,,,,PMA,
PMB,Pembroke,,,,,PMB,
PMD,Pembroke Dock,,,,,PMD,
PMH,Portsmouth Harbour,,,,,PMH,
PMP,Plumpton,,,,,PMP,
PMR,Peckham Rye,,,,,PMR,
PMS,Portsmouth & Southsea,,,,,PMS,
PMT,Polmont,,,,,PMT,
PMW,Penmaenmawr,,,,,PMW,
PNA,Penally,,,,,PNA,
PNE,Penge East,,,,,PNE,
PNF,Penyffordd,,,,,PNF,
PNL,Pannal,,,,,PNL,
PNM,Penmere,,,,,PNM,
PNR,Penrith,,,,,PNR,
PNS,Penistone,,,,,PNS,
PNW,Penge West,,,,,PNW,
PNY,Pen-y-Bont,,,,,PNY,
PNZ,Penzance,,,,,PNZ,
POK,Pokesdown,,,,,POK,
POL,Polsloe Bridge,,,,,POL,
PON,Ponders End,,,,,PON,
POO,Poole,,,,,POO,
POP,Poppleton,,,,,POP,
POR,Porth,,,,,POR,
POT,Pontefract Tanshelf,,,,,POT,
PPD,Pontypridd,,,,,PPD,
PPK,Possilpark & Parkhouse,,,,,PPK,
PPL,Pontypool & New Inn,,,,,PPL,
PRA,Prestwick International Airport,,,,,PRA,
PRB,Prestbury,,,,,PRB,
PRE,Preston,,,,,PRE,
PRH,Penrhyndeudraeth,,,,,PRH,
PRL,Prittlewell,,,,,PRL,
PRN,Parton,,,,,PRN,
PRP,Preston Park,,,,,PRP,
PRR,Princes Risborough,,,,,PRR,
PRS,Prees,,,,,PRS,
PRT,Prestatyn,,,,,PRT,
PRU,Prudhoe,,,,,PRU,
PRW,Perranwell,,,,,PRW,
PRY,Perry Barr,,,,,PRY,
PSC,Prescot,,,,,PSC,
PSE,Pitsea,,,,,PSE,
PSH,Pershore,,,,,PSH,
PSL,Port Sunlight,,,,,PSL,
PSN,Parson Street,,,,,PSN,
PST,Prestonpans,,,,,PST,
PSW,Polesworth,,,,,PSW,
PTA,Port Talbot Parkway,,,,,PTA,
PTB,Pentre-Bach,,,,,PTB,
PTC,Portchester,,,,,PTC,
PTD,Pontarddulais,,,,,PTD,
PTF,Pantyffynnon,,,,,PTF,
PTG,Port Glasgow,,,,,PTG,
PTH,Perth,,,,,PTH,
PTK,Partick,,,,,PTK,
PTL,Priesthill & Darnley,,,,,PTL,
PTM,Porthmadog,,,,,PTM,
PTR,Petersfield,,,,,PTR,
PTT,Patterton,,,,,PTT,
PTW,Prestwick Town,,,,,PTW,
PUL,Pulborough,,,,,PUL,
PUO,Purley Oaks,,,,,PUO,
PUR,Purley,,,,,PUR,
PUT,Putney,,,,,PUT,
PWE,Pollokshaws East,,,,,PWE,
PWL,Pwllheli,,,,,PWL,
PWW,Pollokshaws West,,,,,PWW,
PWY,Patchway,,,,,PWY,
PYC,Pontyclun,,,,,PYC,
PYG,Paisley Gilmour Street,,,,,PYG,
PYJ,Paisley St James,,,,,PYJ,
PYL,Pyle,,,,,PYL,
PYN,Penryn,,,,,PYN,
PYP,Pont-y-Pant,,,,,PYP,
PYT,Poynton,,,,,PYT,
QBR,Queenborough,,,,,QBR,
QPK,Queens Park (Glasgow),,,,,QPK,
QPW,Queens Park (London),,,,,QPW,
QRB,Queenstown Road (Battersea),,,,,QRB,
QRP,"Queens Road, Peckham",,,,,QRP,
QUI,Quintrel Downs,,,,,QUI,
QYD,Quakers Yard,,,,,QYD,
RAD,Radley,,,,,RAD,
RAI,Rainham (Kent),,,,,RAI,
RAM,Ramsgate,,,,,RAM,
RAN,Rannoch,,,,,RAN,
RAU,Rauceby,,,,,RAU,
RAV,Ravenglass for Eskdale,,,,,RAV,
RAY,Raynes Park,,,,,RAY,
RBR,Robertsbridge,,,,,RBR,
RBS,British Steel Redcar,,,,,RBS,
RCA,Risca & Pontymister,,,,,RCA,
RCC,Redcar Central,,,,,RCC,
RCD,Rochdale,,,,,RCD,
RCE,Redcar East,,,,,RCE,
RDA,Redland,,,,,RDA,
RDB,Redbridge,,,,,RDB,
RDC,Redditch,,,,,RDC,
RDD,Riddlesdown,,,,,RDD,
RDF,Radcliffe (Notts),,,,,RDF,
RDG,Reading,,,,,RDG,
RDH,Redhill,,,,,RDH,
RDM,Riding Mill,,,,,RDM,
RDN,Reddish North,,,,,RDN,
RDR,Radyr,,,,,RDR,
RDS,Reddish South,,,,,RDS,
RDT,Radlett,,,,,RDT,
RDW,Reading West,,,,,RDW,
REC,Rectory Road,,,,,REC,
RED,Redruth,,,,,RED,
REE,Reedham (Norfolk),,,,,REE,
REI,Reigate,,,,,REI,
RET,Retford,,,,,RET,
RFD,Rochford,,,,,RFD,
RFY,Rock Ferry,,,,,RFY,
RGL,Rugeley Trent Valley,,,,,RGL,
RGT,Rugeley Town,,,,,RGT,
RGW,Ramsgreave & Wilpshire,,,,,RGW,
RHD,Ribblehead,,,,,RHD,
RHI,Rhiwbina,,,,,RHI,
RHL,Rhyl,,,,,RHL,
RHM,Reedham (Surrey),,,,,RHM,
RHO,Rhosneigr,,,,,RHO,
RHY,Rhymney,,,,,RHY,
RIA,Rhoose Cardiff International Airport,,,,,RIA,
RIC,Rickmansworth,,,,,RIC,
RID,Ridgmont,,,,,RID,
RIL,Rice Lane,,,,,RIL,
RIS,Rishton,,,,,RIS,
RKT,Ruskington,,,,,RKT,
RLG,Rayleigh,,,,,RLG,
RLN,Rowlands Castle,,,,,RLN,
RMB,Roman Bridge,,,,,RMB,
RMC,Rotherham Central,,,,,RMC,
RMD,Richmond,,,,,RMD,
RMF,Romford,,,,,RMF,
RML,Romiley,,,,,RML,
RNF,Rainford,,,,,RNF,
RNH,Rainhill,,,,,RNH,
RNM,Rainham (Essex),,,,,RNM,
RNR,Roughton Road,,,,,RNR,
ROB,Roby,,,,,ROB,
ROC,Roche,,,,,ROC,
ROG,Rogart,,,,,ROG,
ROL,Rolleston,,,,,ROL,
ROM,Romsey,,,,,ROM,
ROO,Roose,,,,,ROO,
ROR,Rogerstone,,,,,ROR,
ROS,Rosyth,,,,,ROS,
ROW,Rowley Regis,,,,,ROW,
RRB,Ryder Brow,,,,,RRB,
RSG,Rose Grove,,,,,RSG,
RSH,Rose Hill Marple,,,,,RSH,
RTN,Renton,,,,,RTN,
RTR,Rochester,,,,,RTR,
RUA,Ruabon,,,,,RUA,
RUE,Runcorn East,,,,,RUE,
RUF,Rufford,,,,,RUF,
RUG,Rugby,,,,,RUG,
RUN,Runcorn,,,,,RUN,
RUS,Ruswarp,,,,,RUS,
RUT,Rutherglen,,,,,RUT,
RVB,Ravensbourne,,,,,RVB,
RVN,Ravensthorpe,,,,,RVN,
RWC,Rawcliffe,,,,,RWC,
RYB,Roy Bridge,,,,,RYB,
RYD,Ryde Esplanade,,,,,RYD,
RYE,Rye,,,,,RYE,
RYH,Rye House,,,,,RYH,
RYN,Roydon,,,,,RYN,
RYP,Ryde Pier Head,,,,,RYP,
RYR,Ryde St Johns Road,,,,,RYR,
RYS,Royston,,,,,RYS,
SAA,St Albans Abbey,,,,,SAA,
SAB,Smallbrook Junction,,,,,SAB,
SAC,St Albans,,,,,SAC,
SAD,Sandwell & Dudley,,,,,SAD,
SAE,Saltaire,,,,,SAE,
SAF,Salfords,,,,,SAF,
SAH,Salhouse,,,,,SAH,
SAJ,St Johns,,,,,SAJ,
SAL,Salisbury,,,,,SAL,
SAM,Saltmarshe,,,,,SAM,
SAN,Sandown,,,,,SAN,
SAR,St Andrews Road,,,,,SAR,
SAS,St Annes-on-the-Sea,,,,,SAS,
SAT,South Acton,,,,,SAT,
SAU,St Austell,,,,,SAU,
SAV,Stratford-upon-Avon,,,,,SAV,
SAW,Sawbridgeworth,,,,,SAW,
SAX,Saxmundham,,,,,SAX,
SAY,Swanley,,,,,SAY,
SBE,Starbeck,,,,,SBE,
SBF,St Budeaux Ferry Road,,,,,SBF,
SBJ,Stourbridge Junction,,,,,SBJ,
SBK,South Bank,,,,,SBK,
SBM,South Bermondsey,,,,,SBM,
SBP,Stonebridge Park,,,,,SBP,
SBR,Spean Bridge,,,,,SBR,
SBS,St Bees,,,,,SBS,
SBT,Stourbridge Town,,,,,SBT,
SBU,Southbury,,,,,SBU,
SBV,St Budeaux Victoria Road,,,,,SBV,
SBY,Selby,,,,,SBY,
SCA,Scarborough,,,,,SCA,
SCF,Stechford,,,,,SCF,
SCG,Stone Crossing,,,,,SCG,
SCH,Scotstounhill,,,,,SCH,
SCR,St Columb Road,,,,,SCR,
SCS,Starcross,,,,,SCS,
SCT,Scotscalder,,,,,SCT,
SCU,Scunthorpe,,,,,SCU,
SCY,South Croydon,,,,,SCY,
SDA,Snodland,,,,,SDA,
SDB,Sandbach,,,,,SDB,
SDF,Saundersfoot,,,,,SDF,
SDG,Sandling,,,,,SDG,
SDH,Sudbury Hill Harrow,,,,,SDH,
SDL,Sandhills,,,,,SDL,
SDM,Shieldmuir,,,,,SDM,
SDN,St Denys,,,,,SDN,
SDP,Sandplace,,,,,SDP,
SDR,Saunderton,,,,,SDR,
SDW,Sandwich,,,,,SDW,
SDY,Sandy,,,,,SDY,
SEA,Seaham,,,,,SEA,
SEC,Seaton Carew,,,,,SEC,
SED,Shelford,,,,,SED,
SEE,Southease,,,,,SEE,
SEF,Seaford,,,,,SEF,
SEG,Selling,,,,,SEG,
SEH,Shoreham (Kent),,,,,SEH,
SEL,Sellafield,,,,,SEL,
SEM,Seamer,,,,,SEM,
SEN,Shenstone,,,,,SEN,
SER,St Erth,,,,,SER,
SES,South Elmsall,,,,,SES,
SET,Settle,,,,,SET,
SEV,Sevenoaks,,,,,SEV,
SFD,Salford Central,,,,,SFD,
SFL,Seaforth & Litherland,,,,,SFL,
SFN,Shifnal,,,,,SFN,
SFO,Stanford-le-Hope,,,,,SFO,
SFR,Shalford,,,,,SFR,
SGB,Smethwick Galton Bridge,,,,,SGB,
SGL,South Gyle,,,,,SGL,
SGM,St Germans,,,,,SGM,
SGN,South Greenford,,,,,SGN,
SGR,Slade Green,,,,,SGR,
SHA,Shaw & Crompton,,,,,SHA,
SHB,Shirebrook,,,,,SHB,
SHC,Streethouse,,,,,SHC,
SHD,Shildon,,,,,SHD,
SHE,Sherborne,,,,,SHE,
SHF,Sheffield,,,,,SHF,
SHH,Shirehampton,,,,,SHH,
SHI,Shiplake,,,,,SHI,
SHJ,St Helens Junction,,,,,SHJ,
SHL,Shawlands,,,,,SHL,
SHM,Sheringham,,,,,SHM,
SHN,Shanklin,,,,,SHN,
SHO,Sholing,,,,,SHO,
SHP,Shepperton,,,,,SHP,
SHR,Shrewsbury,,,,,SHR,
SHS,Shotts,,,,,SHS,
SHT,Shotton,,,,,SHT,
SHU,Stonehouse,,,,,SHU,
SHW,Shawford,,,,,SHW,
SHY,Shipley,,,,,SHY,
SIC,Silecroft,,,,,SIC,
SID,Sidcup,,,,,SID,
SIE,Sherburn-in-Elmet,,,,,SIE,
SIH,St Helier,,,,,SIH,
SIL,Sileby,,,,,SIL,
SIN,Singer,,,,,SIN,
SIP,Shipton,,,,,SIP,
SIT,Sittingbourne,,,,,SIT,
SIV,St Ives (Cornwall),,,,,SIV,
SJP,St James Park,,,,,SJP,
SJS,St James Street,,,,,SJS,
SKE,Skewen,,,,,SKE,
SKG,Skegness,,,,,SKG,
SKI,Skipton,,,,,SKI,
SKM,Stoke Mandeville,,,,,SKM,
SKN,St Keyne Wishing Well Halt,,,,,SKN,
SKS,Stocksfield,,,,,SKS,
SKW,Stoke Newington,,,,,SKW,
SLA,Slateford,,,,,SLA,
SLB,Saltburn,,,,,SLB,
SLD,Salford Crescent,,,,,SLD,
SLH,Sleights,,,,,SLH,
SLK,Silkstone Common,,,,,SLK,
SLL,Stallingborough,,,,,SLL,
SLO,Slough,,,,,SLO,
SLQ,St Leonards Warrior Square,,,,,SLQ,
SLR,Sleaford,,,,,SLR,
SLS,Shettleston,,,,,SLS,
SLT,Saltcoats,,,,,SLT,
SLV,Silver Street,,,,,SLV,
SLW,Salwick,,,,,SLW,
SLY,Selly Oak,,,,,SLY,
SMA,Small Heath,,,,,SMA,
SMB,Smithy Bridge,,,,,SMB,
SMC,Sampford Courtenay,,,,,SMC,
SMD,Stamford,,,,,SMD,
SMG,St Margarets (Gr London),,,,,SMG,
SMH,Stamford Hill,,,,,SMH,
SMI,Smitham,,,,,SMI,
SMK,Stowmarket,,,,,SMK,
SML,Sea Mills,,,,,SML,
SMN,Southminster,,,,,SMN,
SMO,South Merton,,,,,SMO,
SMR,Smethwick Rolfe Street,,,,,SMR,
SMT,St Margarets (Herts),,,,,SMT,
SMY,St Mary Cray,,,,,SMY,
SNA,Sandal & Agbrigg,,,,,SNA,
SND,Sandhurst,,,,,SND,
SNE,Stone,,,,,SNE,
SNF,Shenfield,,,,,SNF,
SNG,Sunningdale,,,,,SNG,
SNH,St Helens Central,,,,,SNH,
SNI,Snaith,,,,,SNI,
SNK,Sankey for Penketh,,,,,SNK,
SNL,Stoneleigh,,,,,SNL,
SNN,Swinton (Gr Manchester),,,,,SNN,
SNO,St Neots,,,,,SNO,
SNR,Sanderstead,,,,,SNR,
SNS,Staines,,,,,SNS,
SNT,Stanlow & Thornton,,,,,SNT,
SNW,Swanwick,,,,,SNW,
SNY,Sunnymeads,,,,,SNY,
SOA,Southampton Airpt Parkway,,,,,SOA,
SOB,Southbourne,,,,,SOB,
SOC,Southend Central,,,,,SOC,
SOE,Southend East,,,,,SOE,
SOF,South Woodham Ferrers,,,,,SOF,
SOG,Stonegate,,,,,SOG,
SOH,South Hampstead,,,,,SOH,
SOK,South Kenton,,,,,SOK,
SOL,Solihull,,,,,SOL,
SOM,South Milford,,,,,SOM,
SON,Steeton & Silsden,,,,,SON,
SOO,Strood,,,,,SOO,
SOP,Southport,,,,,SOP,
SOR,Sole Street,,,,,SOR,
SOT,Stoke-on-Trent,,,,,SOT,
SOU,Southampton Central,,,,,SOU,
SOV,Southend Victoria,,,,,SOV,
SOW,Sowerby Bridge,,,,,SOW,
SPA,Spalding,,,,,SPA,
SPB,Shepherd's Bush,,,,,SPB,
SPF,Springfield,,,,,SPF,
SPH,Shepherds Well,,,,,SPH,
SPI,Spital,,,,,SPI,
SPK,Sutton Parkway,,,,,SPK,
SPN,Spooner Row,,,,,SPN,
SPO,Spondon,,,,,SPO,
SPP,Shippea Hill,,,,,SPP,
SPR,Springburn,,,,,SPR,
SPS,Stepps,,,,,SPS,
SPT,Stockport,,,,,SPT,
SPU,Staplehurst,,,,,SPU,
SPX,London St Pancras (Intl),,,,,SPX,
SPY,Shepley,,,,,SPY,
SQH,Sanquhar,,,,,SQH,
SQU,Squires Gate,,,,,SQU,
SRA,Stratford (London),,,,,SRA,
SRC,Streatham Common,,,,,SRC,
SRD,Stapleton Road,,,,,SRD,
SRG,Seer Green & Jordans,,,,,SRG,
SRH,Streatham Hill,,,,,SRH,
SRI,Spring Road,,,,,SRI,
SRL,Shirley,,,,,SRL,
SRN,Strines,,,,,SRN,
SRO,Shireoaks,,,,,SRO,
SRR,Sarn,,,,,SRR,
SRS,Selhurst,,,,,SRS,
SRT,Shortlands,,,,,SRT,
SRU,South Ruislip,,,,,SRU,
SRY,Shoeburyness,,,,,SRY,
SSC,Seascale,,,,,SSC,
SSD,Stansted Airport,,,,,SSD,
SSE,Shoreham-by-Sea,,,,,SSE,
SSM,Stocksmoor,,,,,SSM,
SSS,Sheerness-on-Sea,,,,,SSS,
SST,Stansted Mountfitchet,,,,,SST,
STA,Stafford,,,,,STA,
STC,Strathcarron,,,,,STC,
STD,Stroud,,,,,STD,
STE,Streatham,,,,,STE,
STF,Stromeferry,,,,,STF,
STG,Stirling,,,,,STG,
STH,Shepreth,,,,,STH,
STJ,Severn Tunnel Junction,,,,,STJ,
STK,Stockton,,,,,STK,
STL,Southall,,,,,STL,
STM,St Michaels,,,,,STM,
STN,Stonehaven,,,,,STN,
STO,South Tottenham,,,,,STO,
STP,London St Pancras Domestic,,,,,STP,
STR,Stranraer,,,,,STR,
STS,Saltash,,,,,STS,
STT,Stewarton,,,,,STT,
STU,Sturry,,,,,STU,
STV,Stevenston,,,,,STV,
STW,Strawberry Hill,,,,,STW,
SUC,Sutton Common,,,,,SUC,
SUD,Sudbury & Harrow Road,,,,,SUD,
SUG,Sugar Loaf,,,,,SUG,
SUM,Summerston,,,,,SUM,
SUN,Sunderland,,,,,SUN,
SUO,Sutton (Surrey),,,,,SUO,
SUP,Sundridge Park,,,,,SUP,
SUR,Surbiton,,,,,SUR,
SUT,Sutton Coldfield,,,,,SUT,
SUU,Sunbury,,,,,SUU,
SUY,Sudbury,,,,,SUY,
SVB,Severn Beach,,,,,SVB,
SVG,Stevenage,,,,,SVG,
SVK,Seven Kings,,,,,SVK,
SVL,Staveley (Cumbria),,,,,SVL,
SVR,Silverdale,,,,,SVR,
SVS,Seven Sisters,,,,,SVS,
SWA,Swansea,,,,,SWA,
SWD,Swinderby,,,,,SWD,
SWE,Swineshead,,,,,SWE,
SWG,Swaythling,,,,,SWG,
SWI,Swindon,,,,,SWI,
SWK,Southwick,,,,,SWK,
SWL,Swale,,,,,SWL,
SWM,Swanscombe,,,,,SWM,
SWN,Swinton (Yorks),,,,,SWN,
SWO,Snowdown,,,,,SWO,
SWR,Stewartby,,,,,SWR,
SWS,South Wigston,,,,,SWS,
SWT,Slaithwaite,,,,,SWT,
SWY,Sway,,,,,SWY,
SXY,Saxilby,,,,,SXY,
SYA,Styal,,,,,SYA,
SYB,Stalybridge,,,,,SYB,
SYD,Sydenham,,,,,SYD,
SYH,Sydenham Hill,,,,,SYH,
SYL,Syon Lane,,,,,SYL,
SYS,Syston,,,,,SYS,
SYT,Somerleyton,,,,,SYT,
TAB,Tame Bridge Parkway,,,,,TAB,
TAC,Tackley,,,,,TAC,
TAD,Tadworth,,,,,TAD,
TAF,Taffs Well,,,,,TAF,
TAI,Tain,,,,,TAI,
TAL,Talsarnau,,,,,TAL,
TAM,Tamworth,,,,,TAM,
TAP,Taplow,,,,,TAP,
TAT,Tattenham Corner,,,,,TAT,
TAU,Taunton,,,,,TAU,
TAY,Taynuilt,,,,,TAY,
TBD,Three Bridges,,,,,TBD,
TBW,Tunbridge Wells,,,,,TBW,
TBY,Thornaby,,,,,TBY,
TDU,Tondu,,,,,TDU,
TEA,Tees-side Airport,,,,,TEA,
TED,Teddington,,,,,TED,
TEN,Tenby,,,,,TEN,
TEO,Theobalds Grove,,,,,TEO,
TEY,Teynham,,,,,TEY,
TFC,Telford Central,,,,,TFC,
TGM,Teignmouth,,,,,TGM,
TGS,Ty Glas,,,,,TGS,
THA,Thatcham,,,,,THA,
THB,Thornliebank,,,,,THB,
THC,Thurnscoe,,,,,THC,
THD,Thames Ditton,,,,,THD,
THE,Theale,,,,,THE,
THH,Thatto Heath,,,,,THH,
THI,Thirsk,,,,,THI,
THL,Tile Hill,,,,,THL,
THO,Thornford,,,,,THO,
THS,Thurso,,,,,THS,
THT,Thorntonhall,,,,,THT,
THU,Thurgarton,,,,,THU,
THW,The Hawthorns,,,,,THW,
TIL,Tilbury Town,,,,,TIL,
TIP,Tipton,,,,,TIP,
TIR,Tir-Phil,,,,,TIR,
TIS,Tisbury,,,,,TIS,
TLB,Talybont,,,,,TLB,
TLC,Tal-y-Cafn,,,,,TLC,
TLH,Tilehurst,,,,,TLH,
TLK,The Lakes,,,,,TLK,
TLS,Thorpe-le-Soken,,,,,TLS,
TMC,Templecombe,,,,,TMC,
TNA,Thornton Abbey,,,,,TNA,
TNF,Tonfanau,,,,,TNF,
TNN,Thorne North,,,,,TNN,
TNP,Tonypandy,,,,,TNP,
TNS,Thorne South,,,,,TNS,
TOD,Todmorden,,,,,TOD,
TOK,Three Oaks,,,,,TOK,
TOL,Tolworth,,,,,TOL,
TOM,Tottenham Hale,,,,,TOM,
TON,Tonbridge,,,,,TON,
TOO,Tooting,,,,,TOO,
TOP,Topsham,,,,,TOP,
TOT,Totnes,,,,,TOT,
TPB,Thorpe Bay,,,,,TPB,
TPC,Thorpe Culvert,,,,,TPC,
TPN,Ton Pentre,,,,,TPN,
TQY,Torquay,,,,,TQY,
TRA,Trafford Park,,,,,TRA,
TRB,Treherbert,,,,,TRB,
TRD,Troed-y-rhiw,,,,,TRD,
TRE,Trefforest Estate,,,,,TRE,
TRF,Trefforest,,,,,TRF,
TRH,Trehafod,,,,,TRH,
TRI,Tring,,,,,TRI,
TRM,Trimley,,,,,TRM,
TRN,Troon,,,,,TRN,
TRO,Trowbridge,,,,,TRO,
TRR,Torre,,,,,TRR,
TRS,Thurston,,,,,TRS,
TRU,Truro,,,,,TRU,
TRY,Treorchy,,,,,TRY,
TTF,Thetford,,,,,TTF,
TTH,Thornton Heath,,,,,TTH,
TTN,Totton,,,,,TTN,
TUH,Tulse Hill,,,,,TUH,
TUL,Tulloch,,,,,TUL,
TUR,Turkey Street,,,,,TUR,
TUT,Tutbury & Hatton,,,,,TUT,
TVP,Tiverton Parkway,,,,,TVP,
TWI,Twickenham,,,,,TWI,
TWN,Town Green,,,,,TWN,
TWY,Twyford,,,,,TWY,
TYC,Ty Croes,,,,,TYC,
TYG,Tygwyn,,,,,TYG,
TYL,Tyndrum Lower,,,,,TYL,
TYS,Tyseley,,,,,TYS,
TYW,Tywyn,,,,,TYW,
UCK,Uckfield,,,,,UCK,
UDD,Uddingston,,,,,UDD,
UHA,Uphall,,,,,UHA,
UHL,Upper Holloway,,,,,UHL,
ULC,Ulceby,,,,,ULC,
ULL,Ulleskelf,,,,,ULL,
ULV,Ulverston,,,,,ULV,
UMB,Umberleigh,,,,,UMB,
UNI,University,,,,,UNI,
UPH,Upper Halliford,,,,,UPH,
UPL,Upholland,,,,,UPL,
UPM,Upminster,,,,,UPM,
UPT,Upton,,,,,UPT,
UPW,Upwey,,,,,UPW,
URM,Urmston,,,,,URM,
UTT,Uttoxeter,,,,,UTT,
UTY,Upper Tyndrum,,,,,UTY,
UWL,Upper Warlingham,,,,,UWL,
VAL,Valley,,,,,VAL,
VIC,London Victoria,,,,,VIC,
VIR,Virginia Water,,,,,VIR,
VXH,Vauxhall,,,,,VXH,
WAC,Warrington Central,,,,,WAC,
WAD,Wadhurst,,,,,WAD,
WAE,London Waterloo East,,,,,WAE,
WAF,Wallyford,,,,,WAF,
WAL,Walton-on-Thames,,,,,WAL,
WAM,Walmer,,,,,WAM,
WAN,Wanborough,,,,,WAN,
WAO,Walton (Merseyside),,,,,WAO,
WAR,Ware,,,,,WAR,
WAS,Watton-at-Stone,,,,,WAS,
WAT,London Waterloo,,,,,WAT,
WAV,Wavertree Tech Park,,,,,WAV,
WBC,Waterbeach,,,,,WBC,
WBD,Whitley Bridge,,,,,WBD,
WBL,Warblington,,,,,WBL,
WBO,Wimbledon Chase,,,,,WBO,
WBP,West Brompton,,,,,WBP,
WBQ,Warrington Bank Quay,,,,,WBQ,
WBR,Whaley Bridge,,,,,WBR,
WBY,West Byfleet,,,,,WBY,
WCB,Westcombe Park,,,,,WCB,
WCF,Westcliff,,,,,WCF,
WCH,Whitchurch (Hants),,,,,WCH,
WCK,Wick,,,,,WCK,
WCL,West Calder,,,,,WCL,
WCM,Wickham Market,,,,,WCM,
WCP,Worcester Park,,,,,WCP,
WCR,Whitecraigs,,,,,WCR,
WCX,Wembley Stadium,,,,,WCX,
WCY,West Croydon,,,,,WCY,
WDB,Woodbridge,,,,,WDB,
WDD,Widdrington,,,,,WDD,
WDE,Wood End,,,,,WDE,
WDH,Woodhouse,,,,,WDH,
WDL,Woodhall,,,,,WDL,
WDM,Windermere,,,,,WDM,
WDN,Walsden,,,,,WDN,
WDO,Waddon,,,,,WDO,
WDS,Woodlesford,,,,,WDS,
WDT,West Drayton,,,,,WDT,
WDU,West Dulwich,,,,,WDU,
WEA,West Ealing,,,,,WEA,
WED,Wedgwood,,,,,WED,
WEE,Weeley,,,,,WEE,
WEH,West Ham,,,,,WEH,
WEL,Wellingborough,,,,,WEL,
WEM,Wem,,,,,WEM,
WES,Westerton,,,,,WES,
WET,Weeton,,,,,WET,
WEY,Weymouth,,,,,WEY,
WFF,Whifflet,,,,,WFF,
WFH,Watford High Street,,,,,WFH,
WFI,Westerfield,,,,,WFI,
WFJ,Watford Junction,,,,,WFJ,
WFL,Wainfleet,,,,,WFL,
WFN,Watford North,,,,,WFN,
WGA,Westgate-on-Sea,,,,,WGA,
WGC,Welwyn Garden City,,,,,WGC,
WGN,Wigan North Western,,,,,WGN,
WGR,Woodgrange Park,,,,,WGR,
WGT,Wigton,,,,,WGT,
WGV,Wargrave,,,,,WGV,
WGW,Wigan Wallgate,,,,,WGW,
WHA,Westenhanger,,,,,WHA,
WHC,Walthamstow Central,,,,,WHC,
WHD,West Hampstead,,,,,WHD,
WHE,Whalley,,,,,WHE,
WHG,Westhoughton,,,,,WHG,
WHI,Whitstable,,,,,WHI,
WHL,White Hart Lane,,,,,WHL,
WHM,Whimple,,,,,WHM,
WHN,Whiston,,,,,WHN,
WHP,West Hampstead Thameslink,,,,,WHP,
WHR,West Horndon,,,,,WHR,
WHS,Whyteleafe South,,,,,WHS,
WHT,Whitchurch (Cardiff),,,,,WHT,
WHY,Whyteleafe,,,,,WHY,
WIC,Wickford,,,,,WIC,
WID,Widnes,,,,,WID,
WIH,Winchmore Hill,,,,,WIH,
WIJ,Willesden Junction,,,,,WIJ,
WIL,Willington,,,,,WIL,
WIM,Wimbledon,,,,,WIM,
WIN,Winchester,,,,,WIN,
WIV,Wivenhoe,,,,,WIV,
WKB,West Kilbride,,,,,WKB,
WKD,Walkden,,,,,WKD,
WKF,Wakefield Westgate,,,,,WKF,
WKG,Workington,,,,,WKG,
WKI,West Kirby,,,,,WKI,
WKK,Wakefield Kirkgate,,,,,WKK,
WKM,Wokingham,,,,,WKM,
WLC,Waltham Cross,,,,,WLC,
WLD,West St Leonards,,,,,WLD,
WLE,Whittlesea,,,,,WLE,
WLF,Whittlesford Parkway,,,,,WLF,
WLG,Wallasey Grove Road,,,,,WLG,
WLI,Welling,,,,,WLI,
WLM,Williamwood,,,,,WLM,
WLN,Wellington (Shropshire),,,,,WLN,
WLO,Waterloo (Merseyside),,,,,WLO,
WLP,Welshpool,,,,,WLP,
WLS,Woolston,,,,,WLS,
WLT,Wallington,,,,,WLT,
WLV,Wallasey Village,,,,,WLV,
WLW,Welwyn North,,,,,WLW,
WLY,Woodley,,,,,WLY,
WMA,West Malling,,,,,WMA,
WMB,Wembley Central,,,,,WMB,
WMC,Wilmcote,,,,,WMC,
WMD,Wymondham,,,,,WMD,
WME,Woodmansterne,,,,,WME,
WMG,Welham Green,,,,,WMG,
WMI,Wildmill,,,,,WMI,
WML,Wilmslow,,,,,WML,
WMN,Warminster,,,,,WMN,
WMR,Widney Manor,,,,,WMR,
WMS,Wemyss Bay,,,,,WMS,
WMW,Walthamstow Queen's Road,,,,,WMW,
WNC,Windsor & Eton Central,,,,,WNC,
WND,Wendover,,,,,WND,
WNE,Wilnecote,,,,,WNE,
WNF,Winchfield,,,,,WNF,
WNG,Waun-Gron Park,,,,,WNG,
WNH,Warnham,,,,,WNH,
WNL,Whinhill,,,,,WNL,
WNM,Weston Milton,,,,,WNM,
WNN,Wennington,,,,,WNN,
WNP,Wanstead Park,,,,,WNP,
WNR,Windsor & Eton Riverside,,,,,WNR,
WNS,Winnersh,,,,,WNS,
WNT,Wandsworth Town,,,,,WNT,
WNW,West Norwood,,,,,WNW,
WNY,White Notley,,,,,WNY,
WOB,Woburn Sands,,,,,WOB,
WOF,Worcester Foregate Street,,,,,WOF,
WOH,Woldingham,,,,,WOH,
WOK,Woking,,,,,WOK,
WOL,Wolverton,,,,,WOL,
WOM,Wombwell,,,,,WOM,
WON,Walton on the Naze,,,,,WON,
WOO,Wool,,,,,WOO,
WOR,Worle,,,,,WOR,
WOS,Worcester Shrub Hill,,,,,WOS,
WPL,Worplesdon,,,,,WPL,
WRB,Wrabness,,,,,WRB,
WRE,Wrenbury,,,,,WRE,
WRH,Worthing,,,,,WRH,
WRK,Worksop,,,,,WRK,
WRL,Wetheral,,,,,WRL,
WRM,Wareham,,,,,WRM,
WRN,West Runton,,,,,WRN,
WRP,Warwick Parkway,,,,,WRP,
WRS,Wressle,,,,,WRS,
WRT,Worstead,,,,,WRT,
WRU,West Ruislip,,,,,WRU,
WRW,Warwick,,,,,WRW,
WRX,Wrexham General,,,,,WRX,
WRY,Wraysbury,,,,,WRY,
WSA,West Allerton,,,,,WSA,
WSB,Westbury (Wilts),,,,,WSB,
WSE,Winchelsea,,,,,WSE,
WSF,Winsford,,,,,WSF,
WSH,Wishaw,,,,,WSH,
WSL,Walsall,,,,,WSL,
WSM,Weston-super-Mare,,,,,WSM,
WSR,Woodsmoor,,,,,WSR,
WST,Wood Street,,,,,WST,
WSU,West Sutton,,,,,WSU,
WSW,Wandsworth Common,,,,,WSW,
WTA,Wester Hailes,,,,,WTA,
WTB,Whitby,,,,,WTB,
WTC,Whitchurch (Shropshire),,,,,WTC,
WTE,Whitlocks End,,,,,WTE,
WTG,Watlington,,,,,WTG,
WTH,Whitehaven,,,,,WTH,
WTI,Winnersh Triangle,,,,,WTI,
WTL,Whitland,,,,,WTL,
WTM,Witham,,,,,WTM,
WTN,Whitton,,,,,WTN,
WTO,Water Orton,,,,,WTO,
WTR,Wateringbury,,,,,WTR,
WTS,Whatstandwell,,,,,WTS,
WTT,Witton,,,,,WTT,
WTY,Witley,,,,,WTY,
WVF,Wivelsfield,,,,,WVF,
WVH,Wolverhampton,,,,,WVH,
WWA,Woolwich Arsenal,,,,,WWA,
WWD,Woolwich Dockyard,,,,,WWD,
WWI,West Wickham,,,,,WWI,
WWL,Whitwell,,,,,WWL,
WWO,West Worthing,,,,,WWO,
WWR,Wandsworth Road,,,,,WWR,
WWW,Wooten Wawen,,,,,WWW,
WXC,Wrexham Central,,,,,WXC,
WYB,Weybridge,,,,,WYB,
WYE,Wye,,,,,WYE,
WYL,Wylde Green,,,,,WYL,
WYM,Wylam,,,,,WYM,
WYT,Wythall,,,,,WYT,
YAE,Yate,,,,,YAE,
YAL,Yalding,,,,,YAL,
YAT,Yatton,,,,,YAT,
YEO,Yeoford,,,,,YEO,
YET,Yetminster,,,,,YET,
YNW,Ynyswen,,,,,YNW,
YOK,Yoker,,,,,YOK,
YRD,Yardley Wood,,,,,YRD,
YRK,York,,,,,YRK,
YRM,Yarm,,,,,YRM,
YRT,Yorton,,,,,YRT,
YSM,Ystrad Mynach,,,,,YSM,
YSR,Ystrad Rhondda,,,,,YSR,
YVJ,Yeovil Junction,,,,,YVJ,
YVP,Yeovil Pen Mill,,,,,YVP,
ZBB,Barbican,,,,,ZBB,
ZBK,Barking Underground,,,,,ZBK,
ZFD,Farringdon,,,,,ZFD,
ZHS,High Street Kensington Underground,,,,,ZHS,
